,Unnamed: 0,valid_from,changeset_id,tags_before,changeset_tags,geometry,comments
33054,2368,2013-08-27 09:51:53+00:00,17532542,{'highway': 'tertiary'},"{'created_by': 'JOSM/1.5 (6115 en)', 'comment': 'Added Highways, Muzaffarabad'}",,"Added Highways, Muzaffarabad"
30700,14,2013-08-27 13:55:16+00:00,17537068,{'highway': 'unclassified'},"{'created_by': 'JOSM/1.5 (6201 en)', 'comment': 'Added and fixed Highways, Muzaffarabad'}",,"Added and fixed Highways, Muzaffarabad"
30701,15,2013-08-27 13:56:58+00:00,17537068,{'highway': 'track'},"{'created_by': 'JOSM/1.5 (6201 en)', 'comment': 'Added and fixed Highways, Muzaffarabad'}",,"Added and fixed Highways, Muzaffarabad"
37823,7137,2013-08-27 13:55:16+00:00,17537068,{'highway': 'unclassified'},"{'created_by': 'JOSM/1.5 (6201 en)', 'comment': 'Added and fixed Highways, Muzaffarabad'}",,"Added and fixed Highways, Muzaffarabad"
698,626,2013-09-01 02:32:25+00:00,17612349,"{'Lat': '32.48934', 'Long': '74.97878', 'Place': 'Kotla', 'Sl_No': '38002.0'}","{'created_by': 'osmtools/19106 (linux)', 'bot': 'yes', 'comment': 'remove un-discussed and faulty import of India place names'}",,remove un-discussed and faulty import of India place names
699,627,2013-09-01 02:32:30+00:00,17612349,"{'Lat': '32.49696', 'Long': '74.75284', 'Place': 'Jandran', 'Sl_No': '38030.0'}","{'created_by': 'osmtools/19106 (linux)', 'bot': 'yes', 'comment': 'remove un-discussed and faulty import of India place names'}",,remove un-discussed and faulty import of India place names
700,628,2013-09-01 02:32:35+00:00,17612349,"{'Lat': '32.50248', 'Long': '74.85347', 'Place': 'Pindi Charkan Kalan', 'Sl_No': '24639.0'}","{'created_by': 'osmtools/19106 (linux)', 'bot': 'yes', 'comment': 'remove un-discussed and faulty import of India place names'}",,remove un-discussed and faulty import of India place names
701,629,2013-09-01 02:32:38+00:00,17612349,"{'Lat': '32.50833', 'Long': '74.99861', 'Place': 'Pakhri', 'Sl_No': '24656.0'}","{'created_by': 'osmtools/19106 (linux)', 'bot': 'yes', 'comment': 'remove un-discussed and faulty import of India place names'}",,remove un-discussed and faulty import of India place names
16356,16284,2013-09-01 02:32:22+00:00,17612349,"{'Lat': '32.47579', 'Long': '74.96634', 'Place': 'Chak Paras', 'Sl_No': '37997.0'}","{'created_by': 'osmtools/19106 (linux)', 'bot': 'yes', 'comment': 'remove un-discussed and faulty import of India place names'}",,remove un-discussed and faulty import of India place names
16357,16285,2013-09-01 02:32:24+00:00,17612349,"{'Lat': '32.48178', 'Long': '74.79067', 'Place': 'Kotha', 'Sl_No': '38024.0'}","{'created_by': 'osmtools/19106 (linux)', 'bot': 'yes', 'comment': 'remove un-discussed and faulty import of India place names'}",,remove un-discussed and faulty import of India place names
16358,16286,2013-09-01 02:32:25+00:00,17612349,"{'Lat': '32.48676', 'Long': '74.95661', 'Place': 'Dadial', 'Sl_No': '38005.0'}","{'created_by': 'osmtools/19106 (linux)', 'bot': 'yes', 'comment': 'remove un-discussed and faulty import of India place names'}",,remove un-discussed and faulty import of India place names
16359,16287,2013-09-01 02:32:34+00:00,17612349,"{'Lat': '32.50122', 'Long': '75.81421', 'Place': 'Basoli', 'Sl_No': '18260.0'}","{'created_by': 'osmtools/19106 (linux)', 'bot': 'yes', 'comment': 'remove un-discussed and faulty import of India place names'}",,remove un-discussed and faulty import of India place names
702,630,2013-09-01 02:32:40+00:00,17612349,"{'Lat': '32.51345', 'Long': '74.90279', 'Place': 'Kotli Takaliyan', 'Sl_No': '24682.0'}","{'created_by': 'osmtools/19106 (linux)', 'bot': 'yes', 'comment': 'remove un-discussed and faulty import of India place names'}",,remove un-discussed and faulty import of India place names
703,631,2013-09-01 02:32:41+00:00,17612349,"{'Lat': '32.51382', 'Long': '74.7733', 'Place': 'Chak Shera', 'Sl_No': '24710.0'}","{'created_by': 'osmtools/19106 (linux)', 'bot': 'yes', 'comment': 'remove un-discussed and faulty import of India place names'}",,remove un-discussed and faulty import of India place names
16362,16290,2013-09-01 02:33:04+00:00,17612349,"{'Lat': '32.56389', 'Long': '74.94722', 'Place': 'Gujjar Maira', 'Sl_No': '24765.0'}","{'created_by': 'osmtools/19106 (linux)', 'bot': 'yes', 'comment': 'remove un-discussed and faulty import of India place names'}",,remove un-discussed and faulty import of India place names
16363,16291,2013-09-01 02:33:07+00:00,17612349,"{'Lat': '32.57162', 'Long': '74.87065', 'Place': 'Chak Hasil', 'Sl_No': '24787.0'}","{'created_by': 'osmtools/19106 (linux)', 'bot': 'yes', 'comment': 'remove un-discussed and faulty import of India place names'}",,remove un-discussed and faulty import of India place names
15297,15225,2013-09-01 02:32:41+00:00,17612349,"{'Lat': '32.51524', 'Long': '74.91396', 'Place': 'Chak Shama', 'Sl_No': '24681.0'}","{'created_by': 'osmtools/19106 (linux)', 'bot': 'yes', 'comment': 'remove un-discussed and faulty import of India place names'}",,remove un-discussed and faulty import of India place names
15298,15226,2013-09-01 02:32:43+00:00,17612349,"{'Lat': '32.51826', 'Long': '74.76818', 'Place': 'Mohanpur', 'Sl_No': '24714.0'}","{'created_by': 'osmtools/19106 (linux)', 'bot': 'yes', 'comment': 'remove un-discussed and faulty import of India place names'}",,remove un-discussed and faulty import of India place names
15299,15227,2013-09-01 02:32:46+00:00,17612349,"{'Lat': '32.53088', 'Long': '74.84468', 'Place': 'Khoaspur', 'Sl_No': '24701.0'}","{'created_by': 'osmtools/19106 (linux)', 'bot': 'yes', 'comment': 'remove un-discussed and faulty import of India place names'}",,remove un-discussed and faulty import of India place names
15300,15228,2013-09-01 02:32:47+00:00,17612349,"{'Lat': '32.53333', 'Long': '74.84583', 'Place': 'Fatehgarh', 'Sl_No': '24699.0'}","{'created_by': 'osmtools/19106 (linux)', 'bot': 'yes', 'comment': 'remove un-discussed and faulty import of India place names'}",,remove un-discussed and faulty import of India place names
15301,15229,2013-09-01 02:32:47+00:00,17612349,"{'Lat': '32.53477', 'Long': '74.89832', 'Place': 'Chak Chimna', 'Sl_No': '24685.0'}","{'created_by': 'osmtools/19106 (linux)', 'bot': 'yes', 'comment': 'remove un-discussed and faulty import of India place names'}",,remove un-discussed and faulty import of India place names
15302,15230,2013-09-01 02:32:47+00:00,17612349,"{'Lat': '32.53502', 'Long': '74.93055', 'Place': 'Swankha', 'Sl_No': '24676.0'}","{'created_by': 'osmtools/19106 (linux)', 'bot': 'yes', 'comment': 'remove un-discussed and faulty import of India place names'}",,remove un-discussed and faulty import of India place names
15303,15231,2013-09-01 02:32:55+00:00,17612349,"{'Lat': '32.5506', 'Long': '74.93586', 'Place': 'Reka Logiyan', 'Sl_No': '24742.0'}","{'created_by': 'osmtools/19106 (linux)', 'bot': 'yes', 'comment': 'remove un-discussed and faulty import of India place names'}",,remove un-discussed and faulty import of India place names
15304,15232,2013-09-01 02:32:58+00:00,17612349,"{'Lat': '32.55539', 'Long': '74.84303', 'Place': 'Pasgal', 'Sl_No': '24790.0'}","{'created_by': 'osmtools/19106 (linux)', 'bot': 'yes', 'comment': 'remove un-discussed and faulty import of India place names'}",,remove un-discussed and faulty import of India place names
15305,15233,2013-09-01 02:33:02+00:00,17612349,"{'Lat': '32.56249', 'Long': '74.7543', 'Place': 'Balah', 'Sl_No': '24722.0'}","{'created_by': 'osmtools/19106 (linux)', 'bot': 'yes', 'comment': 'remove un-discussed and faulty import of India place names'}",,remove un-discussed and faulty import of India place names
15306,15234,2013-09-01 02:33:03+00:00,17612349,"{'Lat': '32.56267', 'Long': '74.87532', 'Place': 'Rehal', 'Sl_No': '24782.0'}","{'created_by': 'osmtools/19106 (linux)', 'bot': 'yes', 'comment': 'remove un-discussed and faulty import of India place names'}",,remove un-discussed and faulty import of India place names
15291,15219,2013-09-01 02:32:28+00:00,17612349,"{'Lat': '32.49152', 'Long': '74.9474', 'Place': 'Dhupiri', 'Sl_No': '38006.0'}","{'created_by': 'osmtools/19106 (linux)', 'bot': 'yes', 'comment': 'remove un-discussed and faulty import of India place names'}",,remove un-discussed and faulty import of India place names
15292,15220,2013-09-01 02:32:28+00:00,17612349,"{'Lat': '32.49228', 'Long': '74.9534', 'Place': 'Mandlial', 'Sl_No': '38004.0'}","{'created_by': 'osmtools/19106 (linux)', 'bot': 'yes', 'comment': 'remove un-discussed and faulty import of India place names'}",,remove un-discussed and faulty import of India place names
16360,16288,2013-09-01 02:32:45+00:00,17612349,"{'Lat': '32.52639', 'Long': '74.88611', 'Place': 'Chak Nazar', 'Sl_No': '24684.0'}","{'created_by': 'osmtools/19106 (linux)', 'bot': 'yes', 'comment': 'remove un-discussed and faulty import of India place names'}",,remove un-discussed and faulty import of India place names
16361,16289,2013-09-01 02:32:55+00:00,17612349,"{'Lat': '32.55005', 'Long': '74.85276', 'Place': 'Morchapur', 'Sl_No': '24734.0'}","{'created_by': 'osmtools/19106 (linux)', 'bot': 'yes', 'comment': 'remove un-discussed and faulty import of India place names'}",,remove un-discussed and faulty import of India place names
15295,15223,2013-09-01 02:32:37+00:00,17612349,"{'Lat': '32.50589', 'Long': '75.12258', 'Place': 'Raiyan', 'Sl_No': '4738.0'}","{'created_by': 'osmtools/19106 (linux)', 'bot': 'yes', 'comment': 'remove un-discussed and faulty import of India place names'}",,remove un-discussed and faulty import of India place names
15296,15224,2013-09-01 02:32:40+00:00,17612349,"{'Lat': '32.5117', 'Long': '74.75864', 'Place': 'Panjgirain', 'Sl_No': '24711.0'}","{'created_by': 'osmtools/19106 (linux)', 'bot': 'yes', 'comment': 'remove un-discussed and faulty import of India place names'}",,remove un-discussed and faulty import of India place names
14249,14177,2013-09-01 02:32:22+00:00,17612349,"{'Lat': '32.47802', 'Long': '74.92699', 'Place': 'Jugwal', 'Sl_No': '38010.0'}","{'created_by': 'osmtools/19106 (linux)', 'bot': 'yes', 'comment': 'remove un-discussed and faulty import of India place names'}",,remove un-discussed and faulty import of India place names
14250,14178,2013-09-01 02:32:24+00:00,17612349,"{'Lat': '32.4824', 'Long': '74.9145', 'Place': 'Bamun Chak', 'Sl_No': '38013.0'}","{'created_by': 'osmtools/19106 (linux)', 'bot': 'yes', 'comment': 'remove un-discussed and faulty import of India place names'}",,remove un-discussed and faulty import of India place names
14251,14179,2013-09-01 02:32:25+00:00,17612349,"{'Lat': '32.48656', 'Long': '74.7818', 'Place': 'Dinga', 'Sl_No': '38026.0'}","{'created_by': 'osmtools/19106 (linux)', 'bot': 'yes', 'comment': 'remove un-discussed and faulty import of India place names'}",,remove un-discussed and faulty import of India place names
14252,14180,2013-09-01 02:32:28+00:00,17612349,"{'Lat': '32.49482', 'Long': '74.7823', 'Place': 'Shahpur', 'Sl_No': '38023.0'}","{'created_by': 'osmtools/19106 (linux)', 'bot': 'yes', 'comment': 'remove un-discussed and faulty import of India place names'}",,remove un-discussed and faulty import of India place names
14253,14181,2013-09-01 02:32:29+00:00,17612349,"{'Lat': '32.49576', 'Long': '74.95504', 'Place': 'Chak Rukwal', 'Sl_No': '38003.0'}","{'created_by': 'osmtools/19106 (linux)', 'bot': 'yes', 'comment': 'remove un-discussed and faulty import of India place names'}",,remove un-discussed and faulty import of India place names
14254,14182,2013-09-01 02:32:36+00:00,17612349,"{'Lat': '32.50278', 'Long': '74.79722', 'Place': 'Chak Wazira', 'Sl_No': '24636.0'}","{'created_by': 'osmtools/19106 (linux)', 'bot': 'yes', 'comment': 'remove un-discussed and faulty import of India place names'}",,remove un-discussed and faulty import of India place names
14255,14183,2013-09-01 02:32:41+00:00,17612349,"{'Lat': '32.51478', 'Long': '74.88089', 'Place': 'Nandpur', 'Sl_No': '24692.0'}","{'created_by': 'osmtools/19106 (linux)', 'bot': 'yes', 'comment': 'remove un-discussed and faulty import of India place names'}",,remove un-discussed and faulty import of India place names
14256,14184,2013-09-01 02:32:43+00:00,17612349,"{'Lat': '32.51848', 'Long': '74.93158', 'Place': 'Chak Balotran', 'Sl_No': '24666.0'}","{'created_by': 'osmtools/19106 (linux)', 'bot': 'yes', 'comment': 'remove un-discussed and faulty import of India place names'}",,remove un-discussed and faulty import of India place names
14257,14185,2013-09-01 02:32:44+00:00,17612349,"{'Lat': '32.52361', 'Long': '74.81806', 'Place': 'Sohagpur', 'Sl_No': '24706.0'}","{'created_by': 'osmtools/19106 (linux)', 'bot': 'yes', 'comment': 'remove un-discussed and faulty import of India place names'}",,remove un-discussed and faulty import of India place names
14258,14186,2013-09-01 02:32:48+00:00,17612349,"{'Lat': '32.53633', 'Long': '74.77486', 'Place': 'Kaleana', 'Sl_No': '24719.0'}","{'created_by': 'osmtools/19106 (linux)', 'bot': 'yes', 'comment': 'remove un-discussed and faulty import of India place names'}",,remove un-discussed and faulty import of India place names
14259,14187,2013-09-01 02:32:51+00:00,17612349,"{'Lat': '32.54297', 'Long': '74.83908', 'Place': 'Chak Majra', 'Sl_No': '24698.0'}","{'created_by': 'osmtools/19106 (linux)', 'bot': 'yes', 'comment': 'remove un-discussed and faulty import of India place names'}",,remove un-discussed and faulty import of India place names
14260,14188,2013-09-01 02:32:55+00:00,17612349,"{'Lat': '32.54862', 'Long': '74.87499', 'Place': 'Bamnal', 'Sl_No': '24735.0'}","{'created_by': 'osmtools/19106 (linux)', 'bot': 'yes', 'comment': 'remove un-discussed and faulty import of India place names'}",,remove un-discussed and faulty import of India place names
14261,14189,2013-09-01 02:33:00+00:00,17612349,"{'Lat': '32.55836', 'Long': '74.75691', 'Place': 'Maggowali', 'Sl_No': '24721.0'}","{'created_by': 'osmtools/19106 (linux)', 'bot': 'yes', 'comment': 'remove un-discussed and faulty import of India place names'}",,remove un-discussed and faulty import of India place names
13215,13143,2013-09-01 02:33:07+00:00,17612349,"{'Lat': '32.57149', 'Long': '74.99054', 'Place': 'Kamala', 'Sl_No': '24755.0'}","{'created_by': 'osmtools/19106 (linux)', 'bot': 'yes', 'comment': 'remove un-discussed and faulty import of India place names'}",,remove un-discussed and faulty import of India place names
13201,13129,2013-09-01 02:32:18+00:00,17612349,"{'Lat': '32.43318', 'Long': '75.52506', 'Place': 'Janglot', 'Sl_No': '12623.0'}","{'created_by': 'osmtools/19106 (linux)', 'bot': 'yes', 'comment': 'remove un-discussed and faulty import of India place names'}",,remove un-discussed and faulty import of India place names
13202,13130,2013-09-01 02:32:20+00:00,17612349,"{'Lat': '32.4503', 'Long': '75.45038', 'Place': 'Budhi', 'Sl_No': '17020.0'}","{'created_by': 'osmtools/19106 (linux)', 'bot': 'yes', 'comment': 'remove un-discussed and faulty import of India place names'}",,remove un-discussed and faulty import of India place names
13203,13131,2013-09-01 02:32:26+00:00,17612349,"{'Lat': '32.49055', 'Long': '74.75721', 'Place': 'Aajpur', 'Sl_No': '38029.0'}","{'created_by': 'osmtools/19106 (linux)', 'bot': 'yes', 'comment': 'remove un-discussed and faulty import of India place names'}",,remove un-discussed and faulty import of India place names
13204,13132,2013-09-01 02:32:31+00:00,17612349,"{'Lat': '32.49783', 'Long': '74.78781', 'Place': 'Changeh', 'Sl_No': '38022.0'}","{'created_by': 'osmtools/19106 (linux)', 'bot': 'yes', 'comment': 'remove un-discussed and faulty import of India place names'}",,remove un-discussed and faulty import of India place names
13205,13133,2013-09-01 02:32:32+00:00,17612349,"{'Lat': '32.5', 'Long': '74.875', 'Place': 'Partapgarh', 'Sl_No': '24643.0'}","{'created_by': 'osmtools/19106 (linux)', 'bot': 'yes', 'comment': 'remove un-discussed and faulty import of India place names'}",,remove un-discussed and faulty import of India place names
13206,13134,2013-09-01 02:32:40+00:00,17612349,"{'Lat': '32.51025', 'Long': '74.94683', 'Place': 'Ramblu Brahmanan', 'Sl_No': '24654.0'}","{'created_by': 'osmtools/19106 (linux)', 'bot': 'yes', 'comment': 'remove un-discussed and faulty import of India place names'}",,remove un-discussed and faulty import of India place names
13207,13135,2013-09-01 02:32:40+00:00,17612349,"{'Lat': '32.51111', 'Long': '74.92778', 'Place': 'Kuliyan', 'Sl_No': '24650.0'}","{'created_by': 'osmtools/19106 (linux)', 'bot': 'yes', 'comment': 'remove un-discussed and faulty import of India place names'}",,remove un-discussed and faulty import of India place names
13208,13136,2013-09-01 02:32:44+00:00,17612349,"{'Lat': '32.52094', 'Long': '74.92206', 'Place': 'Chak Hiran', 'Sl_No': '24669.0'}","{'created_by': 'osmtools/19106 (linux)', 'bot': 'yes', 'comment': 'remove un-discussed and faulty import of India place names'}",,remove un-discussed and faulty import of India place names
13209,13137,2013-09-01 02:32:46+00:00,17612349,"{'Lat': '32.53146', 'Long': '74.96682', 'Place': 'Sarwa', 'Sl_No': '24662.0'}","{'created_by': 'osmtools/19106 (linux)', 'bot': 'yes', 'comment': 'remove un-discussed and faulty import of India place names'}",,remove un-discussed and faulty import of India place names
13210,13138,2013-09-01 02:32:47+00:00,17612349,"{'Lat': '32.53194', 'Long': '74.76111', 'Place': 'Partan', 'Sl_No': '24716.0'}","{'created_by': 'osmtools/19106 (linux)', 'bot': 'yes', 'comment': 'remove un-discussed and faulty import of India place names'}",,remove un-discussed and faulty import of India place names
13211,13139,2013-09-01 02:32:53+00:00,17612349,"{'Lat': '32.54631', 'Long': '74.75949', 'Place': 'Kotli Arayan', 'Sl_No': '24720.0'}","{'created_by': 'osmtools/19106 (linux)', 'bot': 'yes', 'comment': 'remove un-discussed and faulty import of India place names'}",,remove un-discussed and faulty import of India place names
13212,13140,2013-09-01 02:32:53+00:00,17612349,"{'Lat': '32.54693', 'Long': '74.93181', 'Place': 'Chak Guran', 'Sl_No': '24673.0'}","{'created_by': 'osmtools/19106 (linux)', 'bot': 'yes', 'comment': 'remove un-discussed and faulty import of India place names'}",,remove un-discussed and faulty import of India place names
13213,13141,2013-09-01 02:32:55+00:00,17612349,"{'Lat': '32.55', 'Long': '74.80556', 'Place': 'Gandli', 'Sl_No': '24731.0'}","{'created_by': 'osmtools/19106 (linux)', 'bot': 'yes', 'comment': 'remove un-discussed and faulty import of India place names'}",,remove un-discussed and faulty import of India place names
13214,13142,2013-09-01 02:33:04+00:00,17612349,"{'Lat': '32.56389', 'Long': '74.92361', 'Place': 'Doal', 'Sl_No': '24774.0'}","{'created_by': 'osmtools/19106 (linux)', 'bot': 'yes', 'comment': 'remove un-discussed and faulty import of India place names'}",,remove un-discussed and faulty import of India place names
15293,15221,2013-09-01 02:32:30+00:00,17612349,"{'Lat': '32.497', 'Long': '74.98859', 'Place': 'Kaiso Manhasan', 'Sl_No': '38000.0'}","{'created_by': 'osmtools/19106 (linux)', 'bot': 'yes', 'comment': 'remove un-discussed and faulty import of India place names'}",,remove un-discussed and faulty import of India place names
15294,15222,2013-09-01 02:32:37+00:00,17612349,"{'Lat': '32.50519', 'Long': '74.93949', 'Place': 'Mahal Shahan', 'Sl_No': '24652.0'}","{'created_by': 'osmtools/19106 (linux)', 'bot': 'yes', 'comment': 'remove un-discussed and faulty import of India place names'}",,remove un-discussed and faulty import of India place names
15290,15218,2013-09-01 02:32:21+00:00,17612349,"{'Lat': '32.47168', 'Long': '74.95028', 'Place': 'Nathwal', 'Sl_No': '37994.0'}","{'created_by': 'osmtools/19106 (linux)', 'bot': 'yes', 'comment': 'remove un-discussed and faulty import of India place names'}",,remove un-discussed and faulty import of India place names
14262,14190,2013-09-01 02:33:03+00:00,17612349,"{'Lat': '32.56281', 'Long': '74.85178', 'Place': 'Pindori Brahmanan', 'Sl_No': '24788.0'}","{'created_by': 'osmtools/19106 (linux)', 'bot': 'yes', 'comment': 'remove un-discussed and faulty import of India place names'}",,remove un-discussed and faulty import of India place names
12187,12115,2013-09-01 02:32:45+00:00,17612349,"{'Lat': '32.52361', 'Long': '74.95', 'Place': 'Sati', 'Sl_No': '25095.0'}","{'created_by': 'osmtools/19106 (linux)', 'bot': 'yes', 'comment': 'remove un-discussed and faulty import of India place names'}",,remove un-discussed and faulty import of India place names
12188,12116,2013-09-01 02:32:51+00:00,17612349,"{'Lat': '32.54167', 'Long': '74.98333', 'Place': 'Chumbiyan', 'Sl_No': '24660.0'}","{'created_by': 'osmtools/19106 (linux)', 'bot': 'yes', 'comment': 'remove un-discussed and faulty import of India place names'}",,remove un-discussed and faulty import of India place names
12189,12117,2013-09-01 02:32:53+00:00,17612349,"{'Lat': '32.54583', 'Long': '74.91528', 'Place': 'Rakh Jhang', 'Sl_No': '24678.0'}","{'created_by': 'osmtools/19106 (linux)', 'bot': 'yes', 'comment': 'remove un-discussed and faulty import of India place names'}",,remove un-discussed and faulty import of India place names
12190,12118,2013-09-01 02:33:01+00:00,17612349,"{'Lat': '32.56025', 'Long': '74.85858', 'Place': 'Pindori Manhasan', 'Sl_No': '24789.0'}","{'created_by': 'osmtools/19106 (linux)', 'bot': 'yes', 'comment': 'remove un-discussed and faulty import of India place names'}",,remove un-discussed and faulty import of India place names
11127,11055,2013-09-01 02:32:21+00:00,17612349,"{'Lat': '32.4716', 'Long': '74.91479', 'Place': 'Chak Jasu', 'Sl_No': '38012.0'}","{'created_by': 'osmtools/19106 (linux)', 'bot': 'yes', 'comment': 'remove un-discussed and faulty import of India place names'}",,remove un-discussed and faulty import of India place names
11128,11056,2013-09-01 02:32:21+00:00,17612349,"{'Lat': '32.47196', 'Long': '74.91863', 'Place': 'Samdu Manhaspur', 'Sl_No': '38011.0'}","{'created_by': 'osmtools/19106 (linux)', 'bot': 'yes', 'comment': 'remove un-discussed and faulty import of India place names'}",,remove un-discussed and faulty import of India place names
11129,11057,2013-09-01 02:32:22+00:00,17612349,"{'Lat': '32.47367', 'Long': '74.89103', 'Place': 'Chamlial', 'Sl_No': '38018.0'}","{'created_by': 'osmtools/19106 (linux)', 'bot': 'yes', 'comment': 'remove un-discussed and faulty import of India place names'}",,remove un-discussed and faulty import of India place names
11130,11058,2013-09-01 02:32:25+00:00,17612349,"{'Lat': '32.48707', 'Long': '74.98442', 'Place': 'Kamor', 'Sl_No': '37998.0'}","{'created_by': 'osmtools/19106 (linux)', 'bot': 'yes', 'comment': 'remove un-discussed and faulty import of India place names'}",,remove un-discussed and faulty import of India place names
11131,11059,2013-09-01 02:32:35+00:00,17612349,"{'Lat': '32.50264', 'Long': '74.8901', 'Place': 'Dewli Salehriyan', 'Sl_No': '24645.0'}","{'created_by': 'osmtools/19106 (linux)', 'bot': 'yes', 'comment': 'remove un-discussed and faulty import of India place names'}",,remove un-discussed and faulty import of India place names
11132,11060,2013-09-01 02:32:41+00:00,17612349,"{'Lat': '32.51389', 'Long': '74.8625', 'Place': 'Kathar', 'Sl_No': '24640.0'}","{'created_by': 'osmtools/19106 (linux)', 'bot': 'yes', 'comment': 'remove un-discussed and faulty import of India place names'}",,remove un-discussed and faulty import of India place names
11133,11061,2013-09-01 02:32:44+00:00,17612349,"{'Lat': '32.52095', 'Long': '74.79844', 'Place': 'Arnia', 'Sl_No': '19537.0'}","{'created_by': 'osmtools/19106 (linux)', 'bot': 'yes', 'comment': 'remove un-discussed and faulty import of India place names'}",,remove un-discussed and faulty import of India place names
11134,11062,2013-09-01 02:32:48+00:00,17612349,"{'Lat': '32.53702', 'Long': '74.87105', 'Place': 'Shibbu Chak', 'Sl_No': '24689.0'}","{'created_by': 'osmtools/19106 (linux)', 'bot': 'yes', 'comment': 'remove un-discussed and faulty import of India place names'}",,remove un-discussed and faulty import of India place names
11135,11063,2013-09-01 02:32:51+00:00,17612349,"{'Lat': '32.54299', 'Long': '74.91718', 'Place': 'Jhang', 'Sl_No': '24677.0'}","{'created_by': 'osmtools/19106 (linux)', 'bot': 'yes', 'comment': 'remove un-discussed and faulty import of India place names'}",,remove un-discussed and faulty import of India place names
11136,11064,2013-09-01 02:33:04+00:00,17612349,"{'Lat': '32.56389', 'Long': '74.90556', 'Place': 'Chak Umra', 'Sl_No': '24775.0'}","{'created_by': 'osmtools/19106 (linux)', 'bot': 'yes', 'comment': 'remove un-discussed and faulty import of India place names'}",,remove un-discussed and faulty import of India place names
11126,11054,2013-09-01 02:32:13+00:00,17612349,"{'Lat': '32.37068', 'Long': '75.52457', 'Place': 'Kathua', 'Sl_No': '11292.0'}","{'created_by': 'osmtools/19106 (linux)', 'bot': 'yes', 'comment': 'remove un-discussed and faulty import of India place names'}",,remove un-discussed and faulty import of India place names
10060,9988,2013-09-01 02:32:56+00:00,17612349,"{'Lat': '32.55125', 'Long': '74.97117', 'Place': 'Rari', 'Sl_No': '24747.0'}","{'created_by': 'osmtools/19106 (linux)', 'bot': 'yes', 'comment': 'remove un-discussed and faulty import of India place names'}",,remove un-discussed and faulty import of India place names
10061,9989,2013-09-01 02:33:03+00:00,17612349,"{'Lat': '32.5625', 'Long': '74.77917', 'Place': 'Chak Preman', 'Sl_No': '24725.0'}","{'created_by': 'osmtools/19106 (linux)', 'bot': 'yes', 'comment': 'remove un-discussed and faulty import of India place names'}",,remove un-discussed and faulty import of India place names
10050,9978,2013-09-01 02:32:25+00:00,17612349,"{'Lat': '32.4898', 'Long': '74.74796', 'Place': 'Jabwal Khurd', 'Sl_No': '21363.0'}","{'created_by': 'osmtools/19106 (linux)', 'bot': 'yes', 'comment': 'remove un-discussed and faulty import of India place names'}",,remove un-discussed and faulty import of India place names
10051,9979,2013-09-01 02:32:28+00:00,17612349,"{'Lat': '32.49087', 'Long': '74.76441', 'Place': 'Bhatte', 'Sl_No': '38027.0'}","{'created_by': 'osmtools/19106 (linux)', 'bot': 'yes', 'comment': 'remove un-discussed and faulty import of India place names'}",,remove un-discussed and faulty import of India place names
10052,9980,2013-09-01 02:32:37+00:00,17612349,"{'Lat': '32.50417', 'Long': '74.80833', 'Place': 'Rakh Arina', 'Sl_No': '24637.0'}","{'created_by': 'osmtools/19106 (linux)', 'bot': 'yes', 'comment': 'remove un-discussed and faulty import of India place names'}",,remove un-discussed and faulty import of India place names
10053,9981,2013-09-01 02:32:39+00:00,17612349,"{'Lat': '32.50858', 'Long': '74.96402', 'Place': 'Ramgarh', 'Sl_No': '4512.0'}","{'created_by': 'osmtools/19106 (linux)', 'bot': 'yes', 'comment': 'remove un-discussed and faulty import of India place names'}",,remove un-discussed and faulty import of India place names
10054,9982,2013-09-01 02:32:40+00:00,17612349,"{'Lat': '32.51229', 'Long': '75.24871', 'Place': 'Kuta', 'Sl_No': '9675.0'}","{'created_by': 'osmtools/19106 (linux)', 'bot': 'yes', 'comment': 'remove un-discussed and faulty import of India place names'}",,remove un-discussed and faulty import of India place names
10055,9983,2013-09-01 02:32:45+00:00,17612349,"{'Lat': '32.525', 'Long': '74.95', 'Place': 'Rarwan Khurd', 'Sl_No': '24668.0'}","{'created_by': 'osmtools/19106 (linux)', 'bot': 'yes', 'comment': 'remove un-discussed and faulty import of India place names'}",,remove un-discussed and faulty import of India place names
10056,9984,2013-09-01 02:32:45+00:00,17612349,"{'Lat': '32.525', 'Long': '74.975', 'Place': 'Kehranwali', 'Sl_No': '24661.0'}","{'created_by': 'osmtools/19106 (linux)', 'bot': 'yes', 'comment': 'remove un-discussed and faulty import of India place names'}",,remove un-discussed and faulty import of India place names
10057,9985,2013-09-01 02:32:45+00:00,17612349,"{'Lat': '32.52917', 'Long': '74.80278', 'Place': 'Kul Khurd', 'Sl_No': '24709.0'}","{'created_by': 'osmtools/19106 (linux)', 'bot': 'yes', 'comment': 'remove un-discussed and faulty import of India place names'}",,remove un-discussed and faulty import of India place names
10058,9986,2013-09-01 02:32:50+00:00,17612349,"{'Lat': '32.54167', 'Long': '74.86806', 'Place': 'Kothe Bamnal', 'Sl_No': '24688.0'}","{'created_by': 'osmtools/19106 (linux)', 'bot': 'yes', 'comment': 'remove un-discussed and faulty import of India place names'}",,remove un-discussed and faulty import of India place names
10059,9987,2013-09-01 02:32:50+00:00,17612349,"{'Lat': '32.54167', 'Long': '74.89722', 'Place': 'Muzaffarpur', 'Sl_No': '24686.0'}","{'created_by': 'osmtools/19106 (linux)', 'bot': 'yes', 'comment': 'remove un-discussed and faulty import of India place names'}",,remove un-discussed and faulty import of India place names
9038,8966,2013-09-01 02:32:46+00:00,17612349,"{'Lat': '32.52997', 'Long': '74.8391', 'Place': 'Kiryal Khurd', 'Sl_No': '24702.0'}","{'created_by': 'osmtools/19106 (linux)', 'bot': 'yes', 'comment': 'remove un-discussed and faulty import of India place names'}",,remove un-discussed and faulty import of India place names
9039,8967,2013-09-01 02:32:49+00:00,17612349,"{'Lat': '32.53841', 'Long': '74.84995', 'Place': 'Dalair', 'Sl_No': '24697.0'}","{'created_by': 'osmtools/19106 (linux)', 'bot': 'yes', 'comment': 'remove un-discussed and faulty import of India place names'}",,remove un-discussed and faulty import of India place names
9040,8968,2013-09-01 02:32:49+00:00,17612349,"{'Lat': '32.54028', 'Long': '74.8875', 'Place': 'Chak Bhagwana', 'Sl_No': '24687.0'}","{'created_by': 'osmtools/19106 (linux)', 'bot': 'yes', 'comment': 'remove un-discussed and faulty import of India place names'}",,remove un-discussed and faulty import of India place names
9041,8969,2013-09-01 02:32:53+00:00,17612349,"{'Lat': '32.54579', 'Long': '74.98332', 'Place': 'Chak Daulat', 'Sl_No': '24748.0'}","{'created_by': 'osmtools/19106 (linux)', 'bot': 'yes', 'comment': 'remove un-discussed and faulty import of India place names'}",,remove un-discussed and faulty import of India place names
9042,8970,2013-09-01 02:32:58+00:00,17612349,"{'Lat': '32.55533', 'Long': '74.91477', 'Place': 'Majua', 'Sl_No': '24739.0'}","{'created_by': 'osmtools/19106 (linux)', 'bot': 'yes', 'comment': 'remove un-discussed and faulty import of India place names'}",,remove un-discussed and faulty import of India place names
9043,8971,2013-09-01 02:33:01+00:00,17612349,"{'Lat': '32.55972', 'Long': '74.99861', 'Place': 'Chak Salehriyan', 'Sl_No': '24749.0'}","{'created_by': 'osmtools/19106 (linux)', 'bot': 'yes', 'comment': 'remove un-discussed and faulty import of India place names'}",,remove un-discussed and faulty import of India place names
9044,8972,2013-09-01 02:33:02+00:00,17612349,"{'Lat': '32.56066', 'Long': '74.98946', 'Place': 'Badali', 'Sl_No': '24753.0'}","{'created_by': 'osmtools/19106 (linux)', 'bot': 'yes', 'comment': 'remove un-discussed and faulty import of India place names'}",,remove un-discussed and faulty import of India place names
9037,8965,2013-09-01 02:32:46+00:00,17612349,"{'Lat': '32.5299', 'Long': '74.95643', 'Place': 'Dag Shahzadpur', 'Sl_No': '24663.0'}","{'created_by': 'osmtools/19106 (linux)', 'bot': 'yes', 'comment': 'remove un-discussed and faulty import of India place names'}",,remove un-discussed and faulty import of India place names
8040,7968,2013-09-01 02:33:00+00:00,17612349,"{'Lat': '32.55685', 'Long': '74.83169', 'Place': 'Jagtu Chak', 'Sl_No': '24799.0'}","{'created_by': 'osmtools/19106 (linux)', 'bot': 'yes', 'comment': 'remove un-discussed and faulty import of India place names'}",,remove un-discussed and faulty import of India place names
8041,7969,2013-09-01 02:33:00+00:00,17612349,"{'Lat': '32.55778', 'Long': '74.77503', 'Place': 'Bhalesar', 'Sl_No': '24724.0'}","{'created_by': 'osmtools/19106 (linux)', 'bot': 'yes', 'comment': 'remove un-discussed and faulty import of India place names'}",,remove un-discussed and faulty import of India place names
8042,7970,2013-09-01 02:33:00+00:00,17612349,"{'Lat': '32.55972', 'Long': '74.9', 'Place': 'Chak Jawaharsingh', 'Sl_No': '24738.0'}","{'created_by': 'osmtools/19106 (linux)', 'bot': 'yes', 'comment': 'remove un-discussed and faulty import of India place names'}",,remove un-discussed and faulty import of India place names
8043,7971,2013-09-01 02:33:05+00:00,17612349,"{'Lat': '32.56891', 'Long': '74.92706', 'Place': 'Chak Suba', 'Sl_No': '24772.0'}","{'created_by': 'osmtools/19106 (linux)', 'bot': 'yes', 'comment': 'remove un-discussed and faulty import of India place names'}",,remove un-discussed and faulty import of India place names
8033,7961,2013-09-01 02:32:40+00:00,17612349,"{'Lat': '32.51066', 'Long': '74.92653', 'Place': 'Maharajpur', 'Sl_No': '24649.0'}","{'created_by': 'osmtools/19106 (linux)', 'bot': 'yes', 'comment': 'remove un-discussed and faulty import of India place names'}",,remove un-discussed and faulty import of India place names
8034,7962,2013-09-01 02:32:42+00:00,17612349,"{'Lat': '32.51601', 'Long': '74.75381', 'Place': 'Jangwal', 'Sl_No': '24712.0'}","{'created_by': 'osmtools/19106 (linux)', 'bot': 'yes', 'comment': 'remove un-discussed and faulty import of India place names'}",,remove un-discussed and faulty import of India place names
8035,7963,2013-09-01 02:32:42+00:00,17612349,"{'Lat': '32.51806', 'Long': '74.82917', 'Place': 'Kothe Arnia', 'Sl_No': '24704.0'}","{'created_by': 'osmtools/19106 (linux)', 'bot': 'yes', 'comment': 'remove un-discussed and faulty import of India place names'}",,remove un-discussed and faulty import of India place names
8036,7964,2013-09-01 02:32:44+00:00,17612349,"{'Lat': '32.52083', 'Long': '74.81806', 'Place': 'Chak Ramdas', 'Sl_No': '24705.0'}","{'created_by': 'osmtools/19106 (linux)', 'bot': 'yes', 'comment': 'remove un-discussed and faulty import of India place names'}",,remove un-discussed and faulty import of India place names
8037,7965,2013-09-01 02:32:44+00:00,17612349,"{'Lat': '32.52349', 'Long': '74.85637', 'Place': 'Kotla', 'Sl_No': '24694.0'}","{'created_by': 'osmtools/19106 (linux)', 'bot': 'yes', 'comment': 'remove un-discussed and faulty import of India place names'}",,remove un-discussed and faulty import of India place names
8038,7966,2013-09-01 02:32:47+00:00,17612349,"{'Lat': '32.53391', 'Long': '74.87919', 'Place': 'Bahadurpur', 'Sl_No': '24690.0'}","{'created_by': 'osmtools/19106 (linux)', 'bot': 'yes', 'comment': 'remove un-discussed and faulty import of India place names'}",,remove un-discussed and faulty import of India place names
8039,7967,2013-09-01 02:32:51+00:00,17612349,"{'Lat': '32.54333', 'Long': '74.85807', 'Place': 'Badipur Salarian', 'Sl_No': '24696.0'}","{'created_by': 'osmtools/19106 (linux)', 'bot': 'yes', 'comment': 'remove un-discussed and faulty import of India place names'}",,remove un-discussed and faulty import of India place names
8030,7958,2013-09-01 02:32:20+00:00,17612349,"{'Lat': '32.45115', 'Long': '75.61898', 'Place': 'Hatli', 'Sl_No': '13346.0'}","{'created_by': 'osmtools/19106 (linux)', 'bot': 'yes', 'comment': 'remove un-discussed and faulty import of India place names'}",,remove un-discussed and faulty import of India place names
8031,7959,2013-09-01 02:32:28+00:00,17612349,"{'Lat': '32.4913', 'Long': '74.7154', 'Place': 'Tugowali', 'Sl_No': '21365.0'}","{'created_by': 'osmtools/19106 (linux)', 'bot': 'yes', 'comment': 'remove un-discussed and faulty import of India place names'}",,remove un-discussed and faulty import of India place names
8032,7960,2013-09-01 02:32:35+00:00,17612349,"{'Lat': '32.50139', 'Long': '74.77361', 'Place': 'Rangpur Trewa', 'Sl_No': '24632.0'}","{'created_by': 'osmtools/19106 (linux)', 'bot': 'yes', 'comment': 'remove un-discussed and faulty import of India place names'}",,remove un-discussed and faulty import of India place names
7024,6952,2013-09-01 02:33:06+00:00,17612349,"{'Lat': '32.57064', 'Long': '74.89439', 'Place': 'Nadrol', 'Sl_No': '24781.0'}","{'created_by': 'osmtools/19106 (linux)', 'bot': 'yes', 'comment': 'remove un-discussed and faulty import of India place names'}",,remove un-discussed and faulty import of India place names
7012,6940,2013-09-01 02:32:18+00:00,17612349,"{'Lat': '32.42547', 'Long': '75.35149', 'Place': 'Kanpur', 'Sl_No': '11671.0'}","{'created_by': 'osmtools/19106 (linux)', 'bot': 'yes', 'comment': 'remove un-discussed and faulty import of India place names'}",,remove un-discussed and faulty import of India place names
7013,6941,2013-09-01 02:32:20+00:00,17612349,"{'Lat': '32.45458', 'Long': '75.29309', 'Place': 'Hiranagar', 'Sl_No': '13242.0'}","{'created_by': 'osmtools/19106 (linux)', 'bot': 'yes', 'comment': 'remove un-discussed and faulty import of India place names'}",,remove un-discussed and faulty import of India place names
7014,6942,2013-09-01 02:32:22+00:00,17612349,"{'Lat': '32.47736', 'Long': '74.96569', 'Place': 'Babral', 'Sl_No': '37996.0'}","{'created_by': 'osmtools/19106 (linux)', 'bot': 'yes', 'comment': 'remove un-discussed and faulty import of India place names'}",,remove un-discussed and faulty import of India place names
7015,6943,2013-09-01 02:32:30+00:00,17612349,"{'Lat': '32.49659', 'Long': '74.9032', 'Place': 'Chak Jawahir', 'Sl_No': '38015.0'}","{'created_by': 'osmtools/19106 (linux)', 'bot': 'yes', 'comment': 'remove un-discussed and faulty import of India place names'}",,remove un-discussed and faulty import of India place names
7016,6944,2013-09-01 02:32:35+00:00,17612349,"{'Lat': '32.50139', 'Long': '74.86944', 'Place': 'Shri Partapsinghpur', 'Sl_No': '24642.0'}","{'created_by': 'osmtools/19106 (linux)', 'bot': 'yes', 'comment': 'remove un-discussed and faulty import of India place names'}",,remove un-discussed and faulty import of India place names
7017,6945,2013-09-01 02:32:42+00:00,17612349,"{'Lat': '32.51802', 'Long': '74.96357', 'Place': 'Trindi Jamura', 'Sl_No': '24664.0'}","{'created_by': 'osmtools/19106 (linux)', 'bot': 'yes', 'comment': 'remove un-discussed and faulty import of India place names'}",,remove un-discussed and faulty import of India place names
7018,6946,2013-09-01 02:32:45+00:00,17612349,"{'Lat': '32.52361', 'Long': '74.93333', 'Place': 'Chak Dunne', 'Sl_No': '24670.0'}","{'created_by': 'osmtools/19106 (linux)', 'bot': 'yes', 'comment': 'remove un-discussed and faulty import of India place names'}",,remove un-discussed and faulty import of India place names
7019,6947,2013-09-01 02:32:46+00:00,17612349,"{'Lat': '32.52917', 'Long': '74.93333', 'Place': 'Chak Salehriyan', 'Sl_No': '24671.0'}","{'created_by': 'osmtools/19106 (linux)', 'bot': 'yes', 'comment': 'remove un-discussed and faulty import of India place names'}",,remove un-discussed and faulty import of India place names
7020,6948,2013-09-01 02:32:49+00:00,17612349,"{'Lat': '32.53819', 'Long': '74.95947', 'Place': 'Shahzadpur', 'Sl_No': '24672.0'}","{'created_by': 'osmtools/19106 (linux)', 'bot': 'yes', 'comment': 'remove un-discussed and faulty import of India place names'}",,remove un-discussed and faulty import of India place names
7021,6949,2013-09-01 02:32:57+00:00,17612349,"{'Lat': '32.5536', 'Long': '74.79983', 'Place': 'Nanak Chak', 'Sl_No': '24729.0'}","{'created_by': 'osmtools/19106 (linux)', 'bot': 'yes', 'comment': 'remove un-discussed and faulty import of India place names'}",,remove un-discussed and faulty import of India place names
12183,12111,2013-09-01 02:32:25+00:00,17612349,"{'Lat': '32.48879', 'Long': '74.80235', 'Place': 'Chanaz', 'Sl_No': '38020.0'}","{'created_by': 'osmtools/19106 (linux)', 'bot': 'yes', 'comment': 'remove un-discussed and faulty import of India place names'}",,remove un-discussed and faulty import of India place names
12184,12112,2013-09-01 02:32:35+00:00,17612349,"{'Lat': '32.50139', 'Long': '74.78194', 'Place': 'Chak Gouriyan', 'Sl_No': '24634.0'}","{'created_by': 'osmtools/19106 (linux)', 'bot': 'yes', 'comment': 'remove un-discussed and faulty import of India place names'}",,remove un-discussed and faulty import of India place names
12185,12113,2013-09-01 02:32:40+00:00,17612349,"{'Lat': '32.51111', 'Long': '74.95278', 'Place': 'Ramblu Rasoriyan', 'Sl_No': '24653.0'}","{'created_by': 'osmtools/19106 (linux)', 'bot': 'yes', 'comment': 'remove un-discussed and faulty import of India place names'}",,remove un-discussed and faulty import of India place names
12186,12114,2013-09-01 02:32:42+00:00,17612349,"{'Lat': '32.51655', 'Long': '74.83532', 'Place': 'Ala', 'Sl_No': '24703.0'}","{'created_by': 'osmtools/19106 (linux)', 'bot': 'yes', 'comment': 'remove un-discussed and faulty import of India place names'}",,remove un-discussed and faulty import of India place names
6004,5932,2013-09-01 02:32:46+00:00,17612349,"{'Lat': '32.53056', 'Long': '74.90833', 'Place': 'Shri Partapsinghpura', 'Sl_No': '24679.0'}","{'created_by': 'osmtools/19106 (linux)', 'bot': 'yes', 'comment': 'remove un-discussed and faulty import of India place names'}",,remove un-discussed and faulty import of India place names
6011,5939,2013-09-01 02:33:04+00:00,17612349,"{'Lat': '32.5647', 'Long': '74.86932', 'Place': 'Karel Manhasan', 'Sl_No': '24783.0'}","{'created_by': 'osmtools/19106 (linux)', 'bot': 'yes', 'comment': 'remove un-discussed and faulty import of India place names'}",,remove un-discussed and faulty import of India place names
7023,6951,2013-09-01 02:33:05+00:00,17612349,"{'Lat': '32.56944', 'Long': '74.98472', 'Place': 'Sati', 'Sl_No': '24756.0'}","{'created_by': 'osmtools/19106 (linux)', 'bot': 'yes', 'comment': 'remove un-discussed and faulty import of India place names'}",,remove un-discussed and faulty import of India place names
7022,6950,2013-09-01 02:33:01+00:00,17612349,"{'Lat': '32.55972', 'Long': '74.92917', 'Place': 'Chak Bhana Jattan', 'Sl_No': '24740.0'}","{'created_by': 'osmtools/19106 (linux)', 'bot': 'yes', 'comment': 'remove un-discussed and faulty import of India place names'}",,remove un-discussed and faulty import of India place names
6005,5933,2013-09-01 02:32:47+00:00,17612349,"{'Lat': '32.53333', 'Long': '74.85', 'Place': 'Kilichpur', 'Sl_No': '24700.0'}","{'created_by': 'osmtools/19106 (linux)', 'bot': 'yes', 'comment': 'remove un-discussed and faulty import of India place names'}",,remove un-discussed and faulty import of India place names
6006,5934,2013-09-01 02:32:47+00:00,17612349,"{'Lat': '32.53472', 'Long': '74.76667', 'Place': 'Beaspur', 'Sl_No': '24717.0'}","{'created_by': 'osmtools/19106 (linux)', 'bot': 'yes', 'comment': 'remove un-discussed and faulty import of India place names'}",,remove un-discussed and faulty import of India place names
6007,5935,2013-09-01 02:32:50+00:00,17612349,"{'Lat': '32.54162', 'Long': '74.93702', 'Place': 'Kalah', 'Sl_No': '24674.0'}","{'created_by': 'osmtools/19106 (linux)', 'bot': 'yes', 'comment': 'remove un-discussed and faulty import of India place names'}",,remove un-discussed and faulty import of India place names
6008,5936,2013-09-01 02:32:57+00:00,17612349,"{'Lat': '32.55446', 'Long': '74.95419', 'Place': 'Gho Brahmanan', 'Sl_No': '24745.0'}","{'created_by': 'osmtools/19106 (linux)', 'bot': 'yes', 'comment': 'remove un-discussed and faulty import of India place names'}",,remove un-discussed and faulty import of India place names
5999,5927,2013-09-01 02:32:24+00:00,17612349,"{'Lat': '32.48338', 'Long': '74.94206', 'Place': 'Bukhan Kani', 'Sl_No': '38008.0'}","{'created_by': 'osmtools/19106 (linux)', 'bot': 'yes', 'comment': 'remove un-discussed and faulty import of India place names'}",,remove un-discussed and faulty import of India place names
6000,5928,2013-09-01 02:32:28+00:00,17612349,"{'Lat': '32.49316', 'Long': '74.7263', 'Place': 'Bulli Chak', 'Sl_No': '21364.0'}","{'created_by': 'osmtools/19106 (linux)', 'bot': 'yes', 'comment': 'remove un-discussed and faulty import of India place names'}",,remove un-discussed and faulty import of India place names
6001,5929,2013-09-01 02:32:32+00:00,17612349,"{'Lat': '32.49996', 'Long': '74.89274', 'Place': 'Jerara', 'Sl_No': '24644.0'}","{'created_by': 'osmtools/19106 (linux)', 'bot': 'yes', 'comment': 'remove un-discussed and faulty import of India place names'}",,remove un-discussed and faulty import of India place names
6002,5930,2013-09-01 02:32:32+00:00,17612349,"{'Lat': '32.5', 'Long': '74.79722', 'Place': 'Kotli', 'Sl_No': '24635.0'}","{'created_by': 'osmtools/19106 (linux)', 'bot': 'yes', 'comment': 'remove un-discussed and faulty import of India place names'}",,remove un-discussed and faulty import of India place names
6009,5937,2013-09-01 02:33:00+00:00,17612349,"{'Lat': '32.55972', 'Long': '74.76806', 'Place': 'Kotli Mafi', 'Sl_No': '24723.0'}","{'created_by': 'osmtools/19106 (linux)', 'bot': 'yes', 'comment': 'remove un-discussed and faulty import of India place names'}",,remove un-discussed and faulty import of India place names
6010,5938,2013-09-01 02:33:02+00:00,17612349,"{'Lat': '32.56248', 'Long': '74.78181', 'Place': 'Chak Bala', 'Sl_No': '24726.0'}","{'created_by': 'osmtools/19106 (linux)', 'bot': 'yes', 'comment': 'remove un-discussed and faulty import of India place names'}",,remove un-discussed and faulty import of India place names
5997,5925,2013-09-01 02:32:18+00:00,17612349,"{'Lat': '32.43637', 'Long': '75.72636', 'Place': 'Then', 'Sl_No': '1430.0'}","{'created_by': 'osmtools/19106 (linux)', 'bot': 'yes', 'comment': 'remove un-discussed and faulty import of India place names'}",,remove un-discussed and faulty import of India place names
5998,5926,2013-09-01 02:32:20+00:00,17612349,"{'Lat': '32.45545', 'Long': '75.27249', 'Place': 'Jasmergarh', 'Sl_No': '12570.0'}","{'created_by': 'osmtools/19106 (linux)', 'bot': 'yes', 'comment': 'remove un-discussed and faulty import of India place names'}",,remove un-discussed and faulty import of India place names
4939,4867,2013-09-01 02:32:57+00:00,17612349,"{'Lat': '32.55376', 'Long': '74.94738', 'Place': 'Gho Rakwalan', 'Sl_No': '24743.0'}","{'created_by': 'osmtools/19106 (linux)', 'bot': 'yes', 'comment': 'remove un-discussed and faulty import of India place names'}",,remove un-discussed and faulty import of India place names
4940,4868,2013-09-01 02:32:58+00:00,17612349,"{'Lat': '32.55597', 'Long': '74.93327', 'Place': 'Reka Lobana', 'Sl_No': '24741.0'}","{'created_by': 'osmtools/19106 (linux)', 'bot': 'yes', 'comment': 'remove un-discussed and faulty import of India place names'}",,remove un-discussed and faulty import of India place names
4927,4855,2013-09-01 02:32:30+00:00,17612349,"{'Lat': '32.4958', 'Long': '74.80635', 'Place': 'Pindi Charkan', 'Sl_No': '38815.0'}","{'created_by': 'osmtools/19106 (linux)', 'bot': 'yes', 'comment': 'remove un-discussed and faulty import of India place names'}",,remove un-discussed and faulty import of India place names
4928,4856,2013-09-01 02:32:31+00:00,17612349,"{'Lat': '32.49824', 'Long': '74.9977', 'Place': 'Lagwai', 'Sl_No': '37999.0'}","{'created_by': 'osmtools/19106 (linux)', 'bot': 'yes', 'comment': 'remove un-discussed and faulty import of India place names'}",,remove un-discussed and faulty import of India place names
4929,4857,2013-09-01 02:32:36+00:00,17612349,"{'Lat': '32.50293', 'Long': '74.77994', 'Place': 'Kotla Pathanan', 'Sl_No': '24633.0'}","{'created_by': 'osmtools/19106 (linux)', 'bot': 'yes', 'comment': 'remove un-discussed and faulty import of India place names'}",,remove un-discussed and faulty import of India place names
4930,4858,2013-09-01 02:32:37+00:00,17612349,"{'Lat': '32.50833', 'Long': '74.825', 'Place': 'Kothe Kanna', 'Sl_No': '24638.0'}","{'created_by': 'osmtools/19106 (linux)', 'bot': 'yes', 'comment': 'remove un-discussed and faulty import of India place names'}",,remove un-discussed and faulty import of India place names
4931,4859,2013-09-01 02:32:45+00:00,17612349,"{'Lat': '32.52516', 'Long': '74.98354', 'Place': 'Karalian Kalan', 'Sl_No': '24658.0'}","{'created_by': 'osmtools/19106 (linux)', 'bot': 'yes', 'comment': 'remove un-discussed and faulty import of India place names'}",,remove un-discussed and faulty import of India place names
4932,4860,2013-09-01 02:32:45+00:00,17612349,"{'Lat': '32.52542', 'Long': '74.91084', 'Place': 'Chak Chhatakan', 'Sl_No': '24680.0'}","{'created_by': 'osmtools/19106 (linux)', 'bot': 'yes', 'comment': 'remove un-discussed and faulty import of India place names'}",,remove un-discussed and faulty import of India place names
4933,4861,2013-09-01 02:32:47+00:00,17612349,"{'Lat': '32.53194', 'Long': '74.82778', 'Place': 'Marol', 'Sl_No': '24707.0'}","{'created_by': 'osmtools/19106 (linux)', 'bot': 'yes', 'comment': 'remove un-discussed and faulty import of India place names'}",,remove un-discussed and faulty import of India place names
4934,4862,2013-09-01 02:32:48+00:00,17612349,"{'Lat': '32.5361', 'Long': '74.85462', 'Place': 'Shekhupur', 'Sl_No': '24695.0'}","{'created_by': 'osmtools/19106 (linux)', 'bot': 'yes', 'comment': 'remove un-discussed and faulty import of India place names'}",,remove un-discussed and faulty import of India place names
4935,4863,2013-09-01 02:32:51+00:00,17612349,"{'Lat': '32.54261', 'Long': '74.99664', 'Place': 'Chak Baglan', 'Sl_No': '24750.0'}","{'created_by': 'osmtools/19106 (linux)', 'bot': 'yes', 'comment': 'remove un-discussed and faulty import of India place names'}",,remove un-discussed and faulty import of India place names
3879,3807,2013-09-01 02:32:24+00:00,17612349,"{'Lat': '32.48176', 'Long': '74.7791', 'Place': 'Kot Kubbah', 'Sl_No': '38025.0'}","{'created_by': 'osmtools/19106 (linux)', 'bot': 'yes', 'comment': 'remove un-discussed and faulty import of India place names'}",,remove un-discussed and faulty import of India place names
6003,5931,2013-09-01 02:32:43+00:00,17612349,"{'Lat': '32.51835', 'Long': '74.87801', 'Place': 'Ranjitpur', 'Sl_No': '24691.0'}","{'created_by': 'osmtools/19106 (linux)', 'bot': 'yes', 'comment': 'remove un-discussed and faulty import of India place names'}",,remove un-discussed and faulty import of India place names
4936,4864,2013-09-01 02:32:52+00:00,17612349,"{'Lat': '32.54444', 'Long': '74.84167', 'Place': 'Chak Kima', 'Sl_No': '24733.0'}","{'created_by': 'osmtools/19106 (linux)', 'bot': 'yes', 'comment': 'remove un-discussed and faulty import of India place names'}",,remove un-discussed and faulty import of India place names
4937,4865,2013-09-01 02:32:56+00:00,17612349,"{'Lat': '32.55148', 'Long': '74.89938', 'Place': 'Manghal', 'Sl_No': '24737.0'}","{'created_by': 'osmtools/19106 (linux)', 'bot': 'yes', 'comment': 'remove un-discussed and faulty import of India place names'}",,remove un-discussed and faulty import of India place names
4938,4866,2013-09-01 02:32:57+00:00,17612349,"{'Lat': '32.55296', 'Long': '74.98498', 'Place': 'Galwal', 'Sl_No': '24751.0'}","{'created_by': 'osmtools/19106 (linux)', 'bot': 'yes', 'comment': 'remove un-discussed and faulty import of India place names'}",,remove un-discussed and faulty import of India place names
3884,3812,2013-09-01 02:32:37+00:00,17612349,"{'Lat': '32.50833', 'Long': '74.88194', 'Place': 'Shri Gulabsinghpur', 'Sl_No': '24641.0'}","{'created_by': 'osmtools/19106 (linux)', 'bot': 'yes', 'comment': 'remove un-discussed and faulty import of India place names'}",,remove un-discussed and faulty import of India place names
3885,3813,2013-09-01 02:32:44+00:00,17612349,"{'Lat': '32.52018', 'Long': '74.89488', 'Place': 'Khaur', 'Sl_No': '24683.0'}","{'created_by': 'osmtools/19106 (linux)', 'bot': 'yes', 'comment': 'remove un-discussed and faulty import of India place names'}",,remove un-discussed and faulty import of India place names
3886,3814,2013-09-01 02:32:49+00:00,17612349,"{'Lat': '32.54028', 'Long': '74.8', 'Place': 'Kul Kalan', 'Sl_No': '24708.0'}","{'created_by': 'osmtools/19106 (linux)', 'bot': 'yes', 'comment': 'remove un-discussed and faulty import of India place names'}",,remove un-discussed and faulty import of India place names
3887,3815,2013-09-01 02:33:02+00:00,17612349,"{'Lat': '32.56087', 'Long': '74.8204', 'Place': 'Salehr', 'Sl_No': '24798.0'}","{'created_by': 'osmtools/19106 (linux)', 'bot': 'yes', 'comment': 'remove un-discussed and faulty import of India place names'}",,remove un-discussed and faulty import of India place names
3888,3816,2013-09-01 02:33:05+00:00,17612349,"{'Lat': '32.56528', 'Long': '74.92361', 'Place': 'Chak Keshab', 'Sl_No': '24773.0'}","{'created_by': 'osmtools/19106 (linux)', 'bot': 'yes', 'comment': 'remove un-discussed and faulty import of India place names'}",,remove un-discussed and faulty import of India place names
3878,3806,2013-09-01 02:32:22+00:00,17612349,"{'Lat': '32.47628', 'Long': '74.93347', 'Place': 'Kandral', 'Sl_No': '38009.0'}","{'created_by': 'osmtools/19106 (linux)', 'bot': 'yes', 'comment': 'remove un-discussed and faulty import of India place names'}",,remove un-discussed and faulty import of India place names
2820,2748,2013-09-01 02:32:52+00:00,17612349,"{'Lat': '32.54518', 'Long': '74.82608', 'Place': 'Pachel', 'Sl_No': '24732.0'}","{'created_by': 'osmtools/19106 (linux)', 'bot': 'yes', 'comment': 'remove un-discussed and faulty import of India place names'}",,remove un-discussed and faulty import of India place names
2821,2749,2013-09-01 02:33:05+00:00,17612349,"{'Lat': '32.56528', 'Long': '74.81111', 'Place': 'Shahan ke Kothe', 'Sl_No': '24797.0'}","{'created_by': 'osmtools/19106 (linux)', 'bot': 'yes', 'comment': 'remove un-discussed and faulty import of India place names'}",,remove un-discussed and faulty import of India place names
2815,2743,2013-09-01 02:32:28+00:00,17612349,"{'Lat': '32.49393', 'Long': '74.8837', 'Place': 'Chak Deoli', 'Sl_No': '38016.0'}","{'created_by': 'osmtools/19106 (linux)', 'bot': 'yes', 'comment': 'remove un-discussed and faulty import of India place names'}",,remove un-discussed and faulty import of India place names
2816,2744,2013-09-01 02:32:31+00:00,17612349,"{'Lat': '32.49731', 'Long': '74.96862', 'Place': 'Shekhugur', 'Sl_No': '38001.0'}","{'created_by': 'osmtools/19106 (linux)', 'bot': 'yes', 'comment': 'remove un-discussed and faulty import of India place names'}",,remove un-discussed and faulty import of India place names
2817,2745,2013-09-01 02:32:40+00:00,17612349,"{'Lat': '32.51033', 'Long': '74.94137', 'Place': 'Mahal Kalandariyan', 'Sl_No': '24651.0'}","{'created_by': 'osmtools/19106 (linux)', 'bot': 'yes', 'comment': 'remove un-discussed and faulty import of India place names'}",,remove un-discussed and faulty import of India place names
2818,2746,2013-09-01 02:32:46+00:00,17612349,"{'Lat': '32.53194', 'Long': '74.75139', 'Place': 'Kothe Sudaman', 'Sl_No': '24715.0'}","{'created_by': 'osmtools/19106 (linux)', 'bot': 'yes', 'comment': 'remove un-discussed and faulty import of India place names'}",,remove un-discussed and faulty import of India place names
2819,2747,2013-09-01 02:32:49+00:00,17612349,"{'Lat': '32.53889', 'Long': '74.76389', 'Place': 'Kothe Megan', 'Sl_No': '24718.0'}","{'created_by': 'osmtools/19106 (linux)', 'bot': 'yes', 'comment': 'remove un-discussed and faulty import of India place names'}",,remove un-discussed and faulty import of India place names
2813,2741,2013-09-01 02:32:24+00:00,17612349,"{'Lat': '32.47973', 'Long': '74.97414', 'Place': 'Rangor', 'Sl_No': '40882.0'}","{'created_by': 'osmtools/19106 (linux)', 'bot': 'yes', 'comment': 'remove un-discussed and faulty import of India place names'}",,remove un-discussed and faulty import of India place names
2814,2742,2013-09-01 02:32:25+00:00,17612349,"{'Lat': '32.48709', 'Long': '74.93753', 'Place': 'Chak Alia', 'Sl_No': '38007.0'}","{'created_by': 'osmtools/19106 (linux)', 'bot': 'yes', 'comment': 'remove un-discussed and faulty import of India place names'}",,remove un-discussed and faulty import of India place names
1736,1664,2013-09-01 02:32:42+00:00,17612349,"{'Lat': '32.51806', 'Long': '74.96389', 'Place': 'Trindi Sangara', 'Sl_No': '24665.0'}","{'created_by': 'osmtools/19106 (linux)', 'bot': 'yes', 'comment': 'remove un-discussed and faulty import of India place names'}",,remove un-discussed and faulty import of India place names
1737,1665,2013-09-01 02:32:43+00:00,17612349,"{'Lat': '32.51822', 'Long': '74.76358', 'Place': 'Ladwal', 'Sl_No': '24713.0'}","{'created_by': 'osmtools/19106 (linux)', 'bot': 'yes', 'comment': 'remove un-discussed and faulty import of India place names'}",,remove un-discussed and faulty import of India place names
1738,1666,2013-09-01 02:32:44+00:00,17612349,"{'Lat': '32.52032', 'Long': '74.86988', 'Place': 'Joian', 'Sl_No': '24693.0'}","{'created_by': 'osmtools/19106 (linux)', 'bot': 'yes', 'comment': 'remove un-discussed and faulty import of India place names'}",,remove un-discussed and faulty import of India place names
1739,1667,2013-09-01 02:32:46+00:00,17612349,"{'Lat': '32.53056', 'Long': '74.99444', 'Place': 'Chak Bahnah', 'Sl_No': '24659.0'}","{'created_by': 'osmtools/19106 (linux)', 'bot': 'yes', 'comment': 'remove un-discussed and faulty import of India place names'}",,remove un-discussed and faulty import of India place names
1740,1668,2013-09-01 02:32:49+00:00,17612349,"{'Lat': '32.53889', 'Long': '74.93472', 'Place': 'Swankha Than Bawa', 'Sl_No': '24675.0'}","{'created_by': 'osmtools/19106 (linux)', 'bot': 'yes', 'comment': 'remove un-discussed and faulty import of India place names'}",,remove un-discussed and faulty import of India place names
1741,1669,2013-09-01 02:32:53+00:00,17612349,"{'Lat': '32.54638', 'Long': '74.8842', 'Place': 'Saidgarh', 'Sl_No': '24736.0'}","{'created_by': 'osmtools/19106 (linux)', 'bot': 'yes', 'comment': 'remove un-discussed and faulty import of India place names'}",,remove un-discussed and faulty import of India place names
1742,1670,2013-09-01 02:32:55+00:00,17612349,"{'Lat': '32.55014', 'Long': '74.77842', 'Place': 'Qadirpur', 'Sl_No': '24727.0'}","{'created_by': 'osmtools/19106 (linux)', 'bot': 'yes', 'comment': 'remove un-discussed and faulty import of India place names'}",,remove un-discussed and faulty import of India place names
1743,1671,2013-09-01 02:32:58+00:00,17612349,"{'Lat': '32.55493', 'Long': '74.79282', 'Place': 'Rethana', 'Sl_No': '24728.0'}","{'created_by': 'osmtools/19106 (linux)', 'bot': 'yes', 'comment': 'remove un-discussed and faulty import of India place names'}",,remove un-discussed and faulty import of India place names
1744,1672,2013-09-01 02:33:02+00:00,17612349,"{'Lat': '32.56113', 'Long': '75.12494', 'Place': 'Samba', 'Sl_No': '3639.0'}","{'created_by': 'osmtools/19106 (linux)', 'bot': 'yes', 'comment': 'remove un-discussed and faulty import of India place names'}",,remove un-discussed and faulty import of India place names
1745,1673,2013-09-01 02:33:05+00:00,17612349,"{'Lat': '32.56634', 'Long': '74.98506', 'Place': 'Kamala Kuliyan', 'Sl_No': '24754.0'}","{'created_by': 'osmtools/19106 (linux)', 'bot': 'yes', 'comment': 'remove un-discussed and faulty import of India place names'}",,remove un-discussed and faulty import of India place names
1729,1657,2013-09-01 02:32:12+00:00,17612349,"{'Lat': '32.34598', 'Long': '75.43441', 'Place': 'Parol', 'Sl_No': '5790.0'}","{'created_by': 'osmtools/19106 (linux)', 'bot': 'yes', 'comment': 'remove un-discussed and faulty import of India place names'}",,remove un-discussed and faulty import of India place names
1730,1658,2013-09-01 02:32:24+00:00,17612349,"{'Lat': '32.47982', 'Long': '74.88075', 'Place': 'Narayanpur', 'Sl_No': '38019.0'}","{'created_by': 'osmtools/19106 (linux)', 'bot': 'yes', 'comment': 'remove un-discussed and faulty import of India place names'}",,remove un-discussed and faulty import of India place names
1731,1659,2013-09-01 02:32:24+00:00,17612349,"{'Lat': '32.48406', 'Long': '74.72322', 'Place': 'Chauni', 'Sl_No': '21366.0'}","{'created_by': 'osmtools/19106 (linux)', 'bot': 'yes', 'comment': 'remove un-discussed and faulty import of India place names'}",,remove un-discussed and faulty import of India place names
3880,3808,2013-09-01 02:32:24+00:00,17612349,"{'Lat': '32.48517', 'Long': '74.74757', 'Place': 'Jabwal Kalan', 'Sl_No': '21362.0'}","{'created_by': 'osmtools/19106 (linux)', 'bot': 'yes', 'comment': 'remove un-discussed and faulty import of India place names'}",,remove un-discussed and faulty import of India place names
3881,3809,2013-09-01 02:32:28+00:00,17612349,"{'Lat': '32.49292', 'Long': '74.91341', 'Place': 'Sri Partabsinghpura', 'Sl_No': '38014.0'}","{'created_by': 'osmtools/19106 (linux)', 'bot': 'yes', 'comment': 'remove un-discussed and faulty import of India place names'}",,remove un-discussed and faulty import of India place names
3882,3810,2013-09-01 02:32:30+00:00,17612349,"{'Lat': '32.4964', 'Long': '74.80196', 'Place': 'Kadwal', 'Sl_No': '38021.0'}","{'created_by': 'osmtools/19106 (linux)', 'bot': 'yes', 'comment': 'remove un-discussed and faulty import of India place names'}",,remove un-discussed and faulty import of India place names
3883,3811,2013-09-01 02:32:32+00:00,17612349,"{'Lat': '32.49986', 'Long': '74.90712', 'Place': 'Bharari', 'Sl_No': '24646.0'}","{'created_by': 'osmtools/19106 (linux)', 'bot': 'yes', 'comment': 'remove un-discussed and faulty import of India place names'}",,remove un-discussed and faulty import of India place names
1735,1663,2013-09-01 02:32:37+00:00,17612349,"{'Lat': '32.50457', 'Long': '74.93159', 'Place': 'Barkatpur', 'Sl_No': '24648.0'}","{'created_by': 'osmtools/19106 (linux)', 'bot': 'yes', 'comment': 'remove un-discussed and faulty import of India place names'}",,remove un-discussed and faulty import of India place names
1734,1662,2013-09-01 02:32:34+00:00,17612349,"{'Lat': '32.50092', 'Long': '74.97538', 'Place': 'Rajwal', 'Sl_No': '24655.0'}","{'created_by': 'osmtools/19106 (linux)', 'bot': 'yes', 'comment': 'remove un-discussed and faulty import of India place names'}",,remove un-discussed and faulty import of India place names
1733,1661,2013-09-01 02:32:33+00:00,17612349,"{'Lat': '32.5', 'Long': '74.92222', 'Place': 'Chhaoni Hatiyal', 'Sl_No': '24647.0'}","{'created_by': 'osmtools/19106 (linux)', 'bot': 'yes', 'comment': 'remove un-discussed and faulty import of India place names'}",,remove un-discussed and faulty import of India place names
1732,1660,2013-09-01 02:32:30+00:00,17612349,"{'Lat': '32.49651', 'Long': '74.76406', 'Place': 'Tarapur', 'Sl_No': '38028.0'}","{'created_by': 'osmtools/19106 (linux)', 'bot': 'yes', 'comment': 'remove un-discussed and faulty import of India place names'}",,remove un-discussed and faulty import of India place names
704,632,2013-09-01 02:32:44+00:00,17612349,"{'Lat': '32.51869', 'Long': '74.97929', 'Place': 'Bandral', 'Sl_No': '24657.0'}","{'created_by': 'osmtools/19106 (linux)', 'bot': 'yes', 'comment': 'remove un-discussed and faulty import of India place names'}",,remove un-discussed and faulty import of India place names
705,633,2013-09-01 02:32:44+00:00,17612349,"{'Lat': '32.52222', 'Long': '74.94444', 'Place': 'Rarwan Kalan', 'Sl_No': '24667.0'}","{'created_by': 'osmtools/19106 (linux)', 'bot': 'yes', 'comment': 'remove un-discussed and faulty import of India place names'}",,remove un-discussed and faulty import of India place names
706,634,2013-09-01 02:32:55+00:00,17612349,"{'Lat': '32.55033', 'Long': '74.80771', 'Place': 'Gandli', 'Sl_No': '24730.0'}","{'created_by': 'osmtools/19106 (linux)', 'bot': 'yes', 'comment': 'remove un-discussed and faulty import of India place names'}",,remove un-discussed and faulty import of India place names
707,635,2013-09-01 02:32:58+00:00,17612349,"{'Lat': '32.55536', 'Long': '74.99774', 'Place': 'Kirpalpur', 'Sl_No': '24752.0'}","{'created_by': 'osmtools/19106 (linux)', 'bot': 'yes', 'comment': 'remove un-discussed and faulty import of India place names'}",,remove un-discussed and faulty import of India place names
708,636,2013-09-01 02:32:58+00:00,17612349,"{'Lat': '32.55556', 'Long': '74.94861', 'Place': 'Gho Manhasan', 'Sl_No': '24744.0'}","{'created_by': 'osmtools/19106 (linux)', 'bot': 'yes', 'comment': 'remove un-discussed and faulty import of India place names'}",,remove un-discussed and faulty import of India place names
709,637,2013-09-01 02:32:59+00:00,17612349,"{'Lat': '32.55678', 'Long': '74.96393', 'Place': 'Rara', 'Sl_No': '24746.0'}","{'created_by': 'osmtools/19106 (linux)', 'bot': 'yes', 'comment': 'remove un-discussed and faulty import of India place names'}",,remove un-discussed and faulty import of India place names
710,638,2013-09-01 02:33:04+00:00,17612349,"{'Lat': '32.56389', 'Long': '74.95833', 'Place': 'Kothe Manhasan', 'Sl_No': '24764.0'}","{'created_by': 'osmtools/19106 (linux)', 'bot': 'yes', 'comment': 'remove un-discussed and faulty import of India place names'}",,remove un-discussed and faulty import of India place names
711,639,2013-09-01 02:33:05+00:00,17612349,"{'Lat': '32.56662', 'Long': '74.87045', 'Place': 'Tarf Brahmanan', 'Sl_No': '24784.0'}","{'created_by': 'osmtools/19106 (linux)', 'bot': 'yes', 'comment': 'remove un-discussed and faulty import of India place names'}",,remove un-discussed and faulty import of India place names
697,625,2013-09-01 02:32:21+00:00,17612349,"{'Lat': '32.47345', 'Long': '74.90223', 'Place': 'Chhani Fatwal', 'Sl_No': '38017.0'}","{'created_by': 'osmtools/19106 (linux)', 'bot': 'yes', 'comment': 'remove un-discussed and faulty import of India place names'}",,remove un-discussed and faulty import of India place names
61,41,2013-09-01 02:42:10+00:00,17612614,"{'Lat': '34.00998', 'Long': '78.90718', 'Place': 'Nyagzu', 'Sl_No': '6411.0'}","{'created_by': 'osmtools/19106 (linux)', 'bot': 'yes', 'comment': 'remove un-discussed and faulty import of India place names'}",,remove un-discussed and faulty import of India place names
53,33,2013-09-01 02:48:21+00:00,17612614,"{'Lat': '34.5224', 'Long': '79.10813', 'Place': 'Nischu', 'Sl_No': '6522.0'}","{'created_by': 'osmtools/19106 (linux)', 'bot': 'yes', 'comment': 'remove un-discussed and faulty import of India place names'}",,remove un-discussed and faulty import of India place names
47,27,2013-09-01 02:49:09+00:00,17612614,"{'Lat': '35.77218', 'Long': '79.26541', 'Place': 'Hajji Langar', 'Sl_No': '13606.0'}","{'created_by': 'osmtools/19106 (linux)', 'bot': 'yes', 'comment': 'remove un-discussed and faulty import of India place names'}",,remove un-discussed and faulty import of India place names
46,26,2013-09-01 02:49:09+00:00,17612614,"{'Lat': '35.33902', 'Long': '78.86508', 'Place': ""K'o-shih-erh-ts'un"", 'Sl_No': '10186.0'}","{'created_by': 'osmtools/19106 (linux)', 'bot': 'yes', 'comment': 'remove un-discussed and faulty import of India place names'}",,remove un-discussed and faulty import of India place names
30,10,2013-09-01 02:49:09+00:00,17612614,"{'Lat': '35.34912', 'Long': '79.52446', 'Place': 'Tianshuihai', 'Sl_No': '1385.0'}","{'created_by': 'osmtools/19106 (linux)', 'bot': 'yes', 'comment': 'remove un-discussed and faulty import of India place names'}",,remove un-discussed and faulty import of India place names
21,1,2013-09-01 02:45:05+00:00,17612614,"{'Lat': '34.23342', 'Long': '79.08168', 'Place': 'Nyingri', 'Sl_No': '6405.0'}","{'created_by': 'osmtools/19106 (linux)', 'bot': 'yes', 'comment': 'remove un-discussed and faulty import of India place names'}",,remove un-discussed and faulty import of India place names
18006,1112,2013-09-01 02:41:18+00:00,17612614,"{'Lat': '33.80937', 'Long': '74.25088', 'Place': 'Azamabao', 'Sl_No': '23872.0'}","{'created_by': 'osmtools/19106 (linux)', 'bot': 'yes', 'comment': 'remove un-discussed and faulty import of India place names'}",,remove un-discussed and faulty import of India place names
18005,1111,2013-09-01 02:41:10+00:00,17612614,"{'Lat': '33.79105', 'Long': '74.41191', 'Place': 'Nurpur', 'Sl_No': '23973.0'}","{'created_by': 'osmtools/19106 (linux)', 'bot': 'yes', 'comment': 'remove un-discussed and faulty import of India place names'}",,remove un-discussed and faulty import of India place names
18004,1110,2013-09-01 02:41:07+00:00,17612614,"{'Lat': '33.78239', 'Long': '74.07194', 'Place': 'Jhagal Thana', 'Sl_No': '21923.0'}","{'created_by': 'osmtools/19106 (linux)', 'bot': 'yes', 'comment': 'remove un-discussed and faulty import of India place names'}",,remove un-discussed and faulty import of India place names
18003,1109,2013-09-01 02:41:06+00:00,17612614,"{'Lat': '33.775', 'Long': '74.21389', 'Place': 'Safra', 'Sl_No': '21952.0'}","{'created_by': 'osmtools/19106 (linux)', 'bot': 'yes', 'comment': 'remove un-discussed and faulty import of India place names'}",,remove un-discussed and faulty import of India place names
18002,1108,2013-09-01 02:41:03+00:00,17612614,"{'Lat': '33.77201', 'Long': '74.34812', 'Place': 'Katha', 'Sl_No': '23916.0'}","{'created_by': 'osmtools/19106 (linux)', 'bot': 'yes', 'comment': 'remove un-discussed and faulty import of India place names'}",,remove un-discussed and faulty import of India place names
18001,1107,2013-09-01 02:41:02+00:00,17612614,"{'Lat': '33.77093', 'Long': '74.13332', 'Place': 'Kankot', 'Sl_No': '21933.0'}","{'created_by': 'osmtools/19106 (linux)', 'bot': 'yes', 'comment': 'remove un-discussed and faulty import of India place names'}",,remove un-discussed and faulty import of India place names
18000,1106,2013-09-01 02:40:58+00:00,17612614,"{'Lat': '33.76389', 'Long': '74.05', 'Place': 'Khati Dharmsal', 'Sl_No': '21936.0'}","{'created_by': 'osmtools/19106 (linux)', 'bot': 'yes', 'comment': 'remove un-discussed and faulty import of India place names'}",,remove un-discussed and faulty import of India place names
17999,1105,2013-09-01 02:40:57+00:00,17612614,"{'Lat': '33.76113', 'Long': '74.1772', 'Place': 'Nirhad', 'Sl_No': '21944.0'}","{'created_by': 'osmtools/19106 (linux)', 'bot': 'yes', 'comment': 'remove un-discussed and faulty import of India place names'}",,remove un-discussed and faulty import of India place names
18022,1128,2013-09-01 02:42:09+00:00,17612614,"{'Lat': '34.00866', 'Long': '74.51665', 'Place': 'Nagabal', 'Sl_No': '22643.0'}","{'created_by': 'osmtools/19106 (linux)', 'bot': 'yes', 'comment': 'remove un-discussed and faulty import of India place names'}",,remove un-discussed and faulty import of India place names
719,647,2013-09-01 02:33:51+00:00,17612614,"{'Lat': '32.67083', 'Long': '74.93333', 'Place': 'Rajpur Kaular', 'Sl_No': '24964.0'}","{'created_by': 'osmtools/19106 (linux)', 'bot': 'yes', 'comment': 'remove un-discussed and faulty import of India place names'}",,remove un-discussed and faulty import of India place names
718,646,2013-09-01 02:33:48+00:00,17612614,"{'Lat': '32.66311', 'Long': '74.75378', 'Place': 'Top', 'Sl_No': '24916.0'}","{'created_by': 'osmtools/19106 (linux)', 'bot': 'yes', 'comment': 'remove un-discussed and faulty import of India place names'}",,remove un-discussed and faulty import of India place names
717,645,2013-09-01 02:33:33+00:00,17612614,"{'Lat': '32.62778', 'Long': '74.82361', 'Place': 'Chak Alawal', 'Sl_No': '24880.0'}","{'created_by': 'osmtools/19106 (linux)', 'bot': 'yes', 'comment': 'remove un-discussed and faulty import of India place names'}",,remove un-discussed and faulty import of India place names
716,644,2013-09-01 02:33:25+00:00,17612614,"{'Lat': '32.61667', 'Long': '74.83333', 'Place': 'Dhinde Minor', 'Sl_No': '24873.0'}","{'created_by': 'osmtools/19106 (linux)', 'bot': 'yes', 'comment': 'remove un-discussed and faulty import of India place names'}",,remove un-discussed and faulty import of India place names
715,643,2013-09-01 02:33:23+00:00,17612614,"{'Lat': '32.60549', 'Long': '74.9835', 'Place': 'Ranjri', 'Sl_No': '24839.0'}","{'created_by': 'osmtools/19106 (linux)', 'bot': 'yes', 'comment': 'remove un-discussed and faulty import of India place names'}",,remove un-discussed and faulty import of India place names
714,642,2013-09-01 02:33:23+00:00,17612614,"{'Lat': '32.60371', 'Long': '74.87797', 'Place': 'Phatwal', 'Sl_No': '24821.0'}","{'created_by': 'osmtools/19106 (linux)', 'bot': 'yes', 'comment': 'remove un-discussed and faulty import of India place names'}",,remove un-discussed and faulty import of India place names
713,641,2013-09-01 02:33:10+00:00,17612614,"{'Lat': '32.5772', 'Long': '74.883', 'Place': 'Salmen de Kothe', 'Sl_No': '24779.0'}","{'created_by': 'osmtools/19106 (linux)', 'bot': 'yes', 'comment': 'remove un-discussed and faulty import of India place names'}",,remove un-discussed and faulty import of India place names
712,640,2013-09-01 02:33:09+00:00,17612614,"{'Lat': '32.575', 'Long': '74.90139', 'Place': 'Kajaien de Kothe', 'Sl_No': '24776.0'}","{'created_by': 'osmtools/19106 (linux)', 'bot': 'yes', 'comment': 'remove un-discussed and faulty import of India place names'}",,remove un-discussed and faulty import of India place names
30685,628,2013-09-01 02:34:32+00:00,17612614,"{'Lat': '32.7592', 'Long': '78.98187', 'Place': 'Khuldo', 'Sl_No': '10616.0'}","{'created_by': 'osmtools/19106 (linux)', 'bot': 'yes', 'comment': 'remove un-discussed and faulty import of India place names'}",,remove un-discussed and faulty import of India place names
30643,586,2013-09-01 02:33:22+00:00,17612614,"{'Lat': '32.60284', 'Long': '78.94623', 'Place': 'Ukdungle', 'Sl_No': '922.0'}","{'created_by': 'osmtools/19106 (linux)', 'bot': 'yes', 'comment': 'remove un-discussed and faulty import of India place names'}",,remove un-discussed and faulty import of India place names
30531,474,2013-09-01 02:38:31+00:00,17612614,"{'Lat': '33.16811', 'Long': '78.81596', 'Place': 'Nawi', 'Sl_No': '6769.0'}","{'created_by': 'osmtools/19106 (linux)', 'bot': 'yes', 'comment': 'remove un-discussed and faulty import of India place names'}",,remove un-discussed and faulty import of India place names
30492,435,2013-09-01 02:39:11+00:00,17612614,"{'Lat': '33.22226', 'Long': '78.87766', 'Place': 'Thangra', 'Sl_No': '1461.0'}","{'created_by': 'osmtools/19106 (linux)', 'bot': 'yes', 'comment': 'remove un-discussed and faulty import of India place names'}",,remove un-discussed and faulty import of India place names
40122,40,2013-09-01 02:40:44+00:00,17612614,"{'Lat': '33.6877', 'Long': '76.94069', 'Place': 'Honia', 'Sl_No': '13182.0'}","{'created_by': 'osmtools/19106 (linux)', 'bot': 'yes', 'comment': 'remove un-discussed and faulty import of India place names'}",,remove un-discussed and faulty import of India place names
40121,39,2013-09-01 02:40:24+00:00,17612614,"{'Lat': '33.55273', 'Long': '78.15108', 'Place': 'Gaik', 'Sl_No': '14551.0'}","{'created_by': 'osmtools/19106 (linux)', 'bot': 'yes', 'comment': 'remove un-discussed and faulty import of India place names'}",,remove un-discussed and faulty import of India place names
40120,38,2013-09-01 02:40:22+00:00,17612614,"{'Lat': '33.5352', 'Long': '76.9038', 'Place': 'Kursha Gompa', 'Sl_No': '9720.0'}","{'created_by': 'osmtools/19106 (linux)', 'bot': 'yes', 'comment': 'remove un-discussed and faulty import of India place names'}",,remove un-discussed and faulty import of India place names
40119,37,2013-09-01 02:40:16+00:00,17612614,"{'Lat': '33.47616', 'Long': '78.12588', 'Place': 'Kiari', 'Sl_No': '10578.0'}","{'created_by': 'osmtools/19106 (linux)', 'bot': 'yes', 'comment': 'remove un-discussed and faulty import of India place names'}",,remove un-discussed and faulty import of India place names
40118,36,2013-09-01 02:39:37+00:00,17612614,"{'Lat': '33.26782', 'Long': '76.12369', 'Place': 'Aphen', 'Sl_No': '19635.0'}","{'created_by': 'osmtools/19106 (linux)', 'bot': 'yes', 'comment': 'remove un-discussed and faulty import of India place names'}",,remove un-discussed and faulty import of India place names
40117,35,2013-09-01 02:38:35+00:00,17612614,"{'Lat': '33.17481', 'Long': '76.22893', 'Place': 'Chito', 'Sl_No': '16213.0'}","{'created_by': 'osmtools/19106 (linux)', 'bot': 'yes', 'comment': 'remove un-discussed and faulty import of India place names'}",,remove un-discussed and faulty import of India place names
40116,34,2013-09-01 02:37:37+00:00,17612614,"{'Lat': '33.06245', 'Long': '77.22632', 'Place': 'Kurgiakh', 'Sl_No': '9748.0'}","{'created_by': 'osmtools/19106 (linux)', 'bot': 'yes', 'comment': 'remove un-discussed and faulty import of India place names'}",,remove un-discussed and faulty import of India place names
40115,33,2013-09-01 02:36:25+00:00,17612614,"{'Lat': '32.94522', 'Long': '77.55322', 'Place': 'Chumikgiar', 'Sl_No': '39067.0'}","{'created_by': 'osmtools/19106 (linux)', 'bot': 'yes', 'comment': 'remove un-discussed and faulty import of India place names'}",,remove un-discussed and faulty import of India place names
40196,114,2013-09-01 02:40:38+00:00,17612614,"{'Lat': '33.64983', 'Long': '77.7364', 'Place': 'Gya', 'Sl_No': '13639.0'}","{'created_by': 'osmtools/19106 (linux)', 'bot': 'yes', 'comment': 'remove un-discussed and faulty import of India place names'}",,remove un-discussed and faulty import of India place names
40195,113,2013-09-01 02:40:31+00:00,17612614,"{'Lat': '33.58839', 'Long': '77.00958', 'Place': 'Zozar', 'Sl_No': '11.0'}","{'created_by': 'osmtools/19106 (linux)', 'bot': 'yes', 'comment': 'remove un-discussed and faulty import of India place names'}",,remove un-discussed and faulty import of India place names
29562,12668,2013-09-01 02:48:16+00:00,17612614,"{'Lat': '34.51341', 'Long': '73.93826', 'Place': 'Rangwar', 'Sl_No': '25249.0'}","{'created_by': 'osmtools/19106 (linux)', 'bot': 'yes', 'comment': 'remove un-discussed and faulty import of India place names'}",,remove un-discussed and faulty import of India place names
29561,12667,2013-09-01 02:48:14+00:00,17612614,"{'Lat': '34.5', 'Long': '74.26389', 'Place': 'Parepur', 'Sl_No': '23105.0'}","{'created_by': 'osmtools/19106 (linux)', 'bot': 'yes', 'comment': 'remove un-discussed and faulty import of India place names'}",,remove un-discussed and faulty import of India place names
29560,12666,2013-09-01 02:48:06+00:00,17612614,"{'Lat': '34.48484', 'Long': '74.24316', 'Place': 'Bubarnag', 'Sl_No': '22186.0'}","{'created_by': 'osmtools/19106 (linux)', 'bot': 'yes', 'comment': 'remove un-discussed and faulty import of India place names'}",,remove un-discussed and faulty import of India place names
29559,12665,2013-09-01 02:48:05+00:00,17612614,"{'Lat': '34.48325', 'Long': '73.88', 'Place': 'Chatiban', 'Sl_No': '21457.0'}","{'created_by': 'osmtools/19106 (linux)', 'bot': 'yes', 'comment': 'remove un-discussed and faulty import of India place names'}",,remove un-discussed and faulty import of India place names
29558,12664,2013-09-01 02:47:57+00:00,17612614,"{'Lat': '34.47234', 'Long': '74.21176', 'Place': 'Wuchhar', 'Sl_No': '22352.0'}","{'created_by': 'osmtools/19106 (linux)', 'bot': 'yes', 'comment': 'remove un-discussed and faulty import of India place names'}",,remove un-discussed and faulty import of India place names
29557,12663,2013-09-01 02:47:52+00:00,17612614,"{'Lat': '34.46111', 'Long': '74.01667', 'Place': 'Gundi Zun Reshi', 'Sl_No': '22222.0'}","{'created_by': 'osmtools/19106 (linux)', 'bot': 'yes', 'comment': 'remove un-discussed and faulty import of India place names'}",,remove un-discussed and faulty import of India place names
30491,434,2013-09-01 02:34:58+00:00,17612614,"{'Lat': '32.79672', 'Long': '79.17168', 'Place': 'Lekong Yok', 'Sl_No': '9324.0'}","{'created_by': 'osmtools/19106 (linux)', 'bot': 'yes', 'comment': 'remove un-discussed and faulty import of India place names'}",,remove un-discussed and faulty import of India place names
30457,400,2013-09-01 02:33:24+00:00,17612614,"{'Lat': '32.6093', 'Long': '78.95242', 'Place': 'Chigul Namgole', 'Sl_No': '38979.0'}","{'created_by': 'osmtools/19106 (linux)', 'bot': 'yes', 'comment': 'remove un-discussed and faulty import of India place names'}",,remove un-discussed and faulty import of India place names
30211,154,2013-09-01 02:40:48+00:00,17612614,"{'Lat': '33.7', 'Long': '78.9', 'Place': 'Karnag', 'Sl_No': '38494.0'}","{'created_by': 'osmtools/19106 (linux)', 'bot': 'yes', 'comment': 'remove un-discussed and faulty import of India place names'}",,remove un-discussed and faulty import of India place names
30168,111,2013-09-01 02:34:53+00:00,17612614,"{'Lat': '32.78943', 'Long': '78.9962', 'Place': 'Hanle', 'Sl_No': '13517.0'}","{'created_by': 'osmtools/19106 (linux)', 'bot': 'yes', 'comment': 'remove un-discussed and faulty import of India place names'}",,remove un-discussed and faulty import of India place names
30128,71,2013-09-01 02:37:50+00:00,17612614,"{'Lat': '33.10095', 'Long': '78.82869', 'Place': 'Rhongo', 'Sl_No': '4115.0'}","{'created_by': 'osmtools/19106 (linux)', 'bot': 'yes', 'comment': 'remove un-discussed and faulty import of India place names'}",,remove un-discussed and faulty import of India place names
30127,70,2013-09-01 02:34:31+00:00,17612614,"{'Lat': '32.75788', 'Long': '78.89947', 'Place': 'Punguk', 'Sl_No': '4964.0'}","{'created_by': 'osmtools/19106 (linux)', 'bot': 'yes', 'comment': 'remove un-discussed and faulty import of India place names'}",,remove un-discussed and faulty import of India place names
30091,34,2013-09-01 02:39:55+00:00,17612614,"{'Lat': '33.32725', 'Long': '78.85824', 'Place': 'Gandpa Gompa', 'Sl_No': '14483.0'}","{'created_by': 'osmtools/19106 (linux)', 'bot': 'yes', 'comment': 'remove un-discussed and faulty import of India place names'}",,remove un-discussed and faulty import of India place names
30090,33,2013-09-01 02:34:00+00:00,17612614,"{'Lat': '32.68506', 'Long': '78.86262', 'Place': 'Zong', 'Sl_No': '14.0'}","{'created_by': 'osmtools/19106 (linux)', 'bot': 'yes', 'comment': 'remove un-discussed and faulty import of India place names'}",,remove un-discussed and faulty import of India place names
29547,12653,2013-09-01 02:47:06+00:00,17612614,"{'Lat': '34.38814', 'Long': '74.76143', 'Place': 'Saringar', 'Sl_No': '21585.0'}","{'created_by': 'osmtools/19106 (linux)', 'bot': 'yes', 'comment': 'remove un-discussed and faulty import of India place names'}",,remove un-discussed and faulty import of India place names
29546,12652,2013-09-01 02:47:02+00:00,17612614,"{'Lat': '34.3821', 'Long': '74.25368', 'Place': 'Badrahar', 'Sl_No': '22174.0'}","{'created_by': 'osmtools/19106 (linux)', 'bot': 'yes', 'comment': 'remove un-discussed and faulty import of India place names'}",,remove un-discussed and faulty import of India place names
29545,12651,2013-09-01 02:46:56+00:00,17612614,"{'Lat': '34.37581', 'Long': '76.3704', 'Place': 'Mulbekh', 'Sl_No': '7518.0'}","{'created_by': 'osmtools/19106 (linux)', 'bot': 'yes', 'comment': 'remove un-discussed and faulty import of India place names'}",,remove un-discussed and faulty import of India place names
29544,12650,2013-09-01 02:46:50+00:00,17612614,"{'Lat': '34.3693', 'Long': '74.67048', 'Place': 'Gurur', 'Sl_No': '13663.0'}","{'created_by': 'osmtools/19106 (linux)', 'bot': 'yes', 'comment': 'remove un-discussed and faulty import of India place names'}",,remove un-discussed and faulty import of India place names
29543,12649,2013-09-01 02:46:47+00:00,17612614,"{'Lat': '34.36667', 'Long': '74.2875', 'Place': 'Talwari', 'Sl_No': '23029.0'}","{'created_by': 'osmtools/19106 (linux)', 'bot': 'yes', 'comment': 'remove un-discussed and faulty import of India place names'}",,remove un-discussed and faulty import of India place names
29542,12648,2013-09-01 02:46:47+00:00,17612614,"{'Lat': '34.36649', 'Long': '73.97936', 'Place': 'Dudhi', 'Sl_No': '25336.0'}","{'created_by': 'osmtools/19106 (linux)', 'bot': 'yes', 'comment': 'remove un-discussed and faulty import of India place names'}",,remove un-discussed and faulty import of India place names
29541,12647,2013-09-01 02:46:45+00:00,17612614,"{'Lat': '34.36165', 'Long': '74.4724', 'Place': 'Mundij', 'Sl_No': '22984.0'}","{'created_by': 'osmtools/19106 (linux)', 'bot': 'yes', 'comment': 'remove un-discussed and faulty import of India place names'}",,remove un-discussed and faulty import of India place names
29571,12677,2013-09-01 02:49:05+00:00,17612614,"{'Lat': '34.67815', 'Long': '77.3024', 'Place': 'Kharu', 'Sl_No': '10813.0'}","{'created_by': 'osmtools/19106 (linux)', 'bot': 'yes', 'comment': 'remove un-discussed and faulty import of India place names'}",,remove un-discussed and faulty import of India place names
29570,12676,2013-09-01 02:48:46+00:00,17612614,"{'Lat': '34.60683', 'Long': '76.38864', 'Place': 'Mantha', 'Sl_No': '25197.0'}","{'created_by': 'osmtools/19106 (linux)', 'bot': 'yes', 'comment': 'remove un-discussed and faulty import of India place names'}",,remove un-discussed and faulty import of India place names
29569,12675,2013-09-01 02:48:43+00:00,17612614,"{'Lat': '34.59973', 'Long': '73.97707', 'Place': 'Khudiri', 'Sl_No': '25241.0'}","{'created_by': 'osmtools/19106 (linux)', 'bot': 'yes', 'comment': 'remove un-discussed and faulty import of India place names'}",,remove un-discussed and faulty import of India place names
29568,12674,2013-09-01 02:48:42+00:00,17612614,"{'Lat': '34.59287', 'Long': '75.03378', 'Place': 'Safedah', 'Sl_No': '24083.0'}","{'created_by': 'osmtools/19106 (linux)', 'bot': 'yes', 'comment': 'remove un-discussed and faulty import of India place names'}",,remove un-discussed and faulty import of India place names
29567,12673,2013-09-01 02:48:39+00:00,17612614,"{'Lat': '34.56944', 'Long': '76.2125', 'Place': 'Anati', 'Sl_No': '25161.0'}","{'created_by': 'osmtools/19106 (linux)', 'bot': 'yes', 'comment': 'remove un-discussed and faulty import of India place names'}",,remove un-discussed and faulty import of India place names
29566,12672,2013-09-01 02:48:38+00:00,17612614,"{'Lat': '34.56599', 'Long': '75.01478', 'Place': 'Mahzgund', 'Sl_No': '24086.0'}","{'created_by': 'osmtools/19106 (linux)', 'bot': 'yes', 'comment': 'remove un-discussed and faulty import of India place names'}",,remove un-discussed and faulty import of India place names
29565,12671,2013-09-01 02:48:30+00:00,17612614,"{'Lat': '34.55087', 'Long': '73.97776', 'Place': 'Domari', 'Sl_No': '25232.0'}","{'created_by': 'osmtools/19106 (linux)', 'bot': 'yes', 'comment': 'remove un-discussed and faulty import of India place names'}",,remove un-discussed and faulty import of India place names
29564,12670,2013-09-01 02:48:30+00:00,17612614,"{'Lat': '34.54846', 'Long': '75.07814', 'Place': 'Sarodab', 'Sl_No': '24094.0'}","{'created_by': 'osmtools/19106 (linux)', 'bot': 'yes', 'comment': 'remove un-discussed and faulty import of India place names'}",,remove un-discussed and faulty import of India place names
29563,12669,2013-09-01 02:48:23+00:00,17612614,"{'Lat': '34.53333', 'Long': '75.21667', 'Place': 'Lor Khanba', 'Sl_No': '24107.0'}","{'created_by': 'osmtools/19106 (linux)', 'bot': 'yes', 'comment': 'remove un-discussed and faulty import of India place names'}",,remove un-discussed and faulty import of India place names
29556,12662,2013-09-01 02:47:52+00:00,17612614,"{'Lat': '34.45965', 'Long': '73.92467', 'Place': 'Draggar', 'Sl_No': '25332.0'}","{'created_by': 'osmtools/19106 (linux)', 'bot': 'yes', 'comment': 'remove un-discussed and faulty import of India place names'}",,remove un-discussed and faulty import of India place names
29555,12661,2013-09-01 02:47:46+00:00,17612614,"{'Lat': '34.45293', 'Long': '74.17759', 'Place': 'Wopazwain', 'Sl_No': '22351.0'}","{'created_by': 'osmtools/19106 (linux)', 'bot': 'yes', 'comment': 'remove un-discussed and faulty import of India place names'}",,remove un-discussed and faulty import of India place names
29554,12660,2013-09-01 02:47:42+00:00,17612614,"{'Lat': '34.44184', 'Long': '73.94705', 'Place': 'Donari', 'Sl_No': '25331.0'}","{'created_by': 'osmtools/19106 (linux)', 'bot': 'yes', 'comment': 'remove un-discussed and faulty import of India place names'}",,remove un-discussed and faulty import of India place names
29553,12659,2013-09-01 02:47:41+00:00,17612614,"{'Lat': '34.43365', 'Long': '73.83192', 'Place': 'Nar Haji', 'Sl_No': '21453.0'}","{'created_by': 'osmtools/19106 (linux)', 'bot': 'yes', 'comment': 'remove un-discussed and faulty import of India place names'}",,remove un-discussed and faulty import of India place names
29552,12658,2013-09-01 02:47:28+00:00,17612614,"{'Lat': '34.41672', 'Long': '73.83145', 'Place': 'Phagwan', 'Sl_No': '25381.0'}","{'created_by': 'osmtools/19106 (linux)', 'bot': 'yes', 'comment': 'remove un-discussed and faulty import of India place names'}",,remove un-discussed and faulty import of India place names
29551,12657,2013-09-01 02:47:25+00:00,17612614,"{'Lat': '34.41389', 'Long': '74.76667', 'Place': 'Kudar', 'Sl_No': '21600.0'}","{'created_by': 'osmtools/19106 (linux)', 'bot': 'yes', 'comment': 'remove un-discussed and faulty import of India place names'}",,remove un-discussed and faulty import of India place names
29550,12656,2013-09-01 02:47:22+00:00,17612614,"{'Lat': '34.41119', 'Long': '74.83667', 'Place': 'Kubbi', 'Sl_No': '21592.0'}","{'created_by': 'osmtools/19106 (linux)', 'bot': 'yes', 'comment': 'remove un-discussed and faulty import of India place names'}",,remove un-discussed and faulty import of India place names
29549,12655,2013-09-01 02:47:15+00:00,17612614,"{'Lat': '34.39905', 'Long': '74.23198', 'Place': 'Badalpur', 'Sl_No': '22172.0'}","{'created_by': 'osmtools/19106 (linux)', 'bot': 'yes', 'comment': 'remove un-discussed and faulty import of India place names'}",,remove un-discussed and faulty import of India place names
29548,12654,2013-09-01 02:47:07+00:00,17612614,"{'Lat': '34.39167', 'Long': '74.35833', 'Place': 'Banagam', 'Sl_No': '23060.0'}","{'created_by': 'osmtools/19106 (linux)', 'bot': 'yes', 'comment': 'remove un-discussed and faulty import of India place names'}",,remove un-discussed and faulty import of India place names
40194,112,2013-09-01 02:40:29+00:00,17612614,"{'Lat': '33.58584', 'Long': '77.4677', 'Place': 'Kurio', 'Sl_No': '9736.0'}","{'created_by': 'osmtools/19106 (linux)', 'bot': 'yes', 'comment': 'remove un-discussed and faulty import of India place names'}",,remove un-discussed and faulty import of India place names
40193,111,2013-09-01 02:40:29+00:00,17612614,"{'Lat': '33.58297', 'Long': '78.08083', 'Place': 'Tirido', 'Sl_No': '1279.0'}","{'created_by': 'osmtools/19106 (linux)', 'bot': 'yes', 'comment': 'remove un-discussed and faulty import of India place names'}",,remove un-discussed and faulty import of India place names
40192,110,2013-09-01 02:40:24+00:00,17612614,"{'Lat': '33.55', 'Long': '78.13333', 'Place': 'Gaik', 'Sl_No': '14552.0'}","{'created_by': 'osmtools/19106 (linux)', 'bot': 'yes', 'comment': 'remove un-discussed and faulty import of India place names'}",,remove un-discussed and faulty import of India place names
40191,109,2013-09-01 02:40:23+00:00,17612614,"{'Lat': '33.53978', 'Long': '75.9602', 'Place': 'Hawal', 'Sl_No': '13326.0'}","{'created_by': 'osmtools/19106 (linux)', 'bot': 'yes', 'comment': 'remove un-discussed and faulty import of India place names'}",,remove un-discussed and faulty import of India place names
40190,108,2013-09-01 02:40:21+00:00,17612614,"{'Lat': '33.52382', 'Long': '76.7983', 'Place': 'Tungring', 'Sl_No': '1033.0'}","{'created_by': 'osmtools/19106 (linux)', 'bot': 'yes', 'comment': 'remove un-discussed and faulty import of India place names'}",,remove un-discussed and faulty import of India place names
40189,107,2013-09-01 02:40:13+00:00,17612614,"{'Lat': '33.41886', 'Long': '76.45205', 'Place': 'Bhuzas', 'Sl_No': '17486.0'}","{'created_by': 'osmtools/19106 (linux)', 'bot': 'yes', 'comment': 'remove un-discussed and faulty import of India place names'}",,remove un-discussed and faulty import of India place names
40188,106,2013-09-01 02:39:33+00:00,17612614,"{'Lat': '33.25762', 'Long': '78.54264', 'Place': 'Mahe', 'Sl_No': '8908.0'}","{'created_by': 'osmtools/19106 (linux)', 'bot': 'yes', 'comment': 'remove un-discussed and faulty import of India place names'}",,remove un-discussed and faulty import of India place names
40187,105,2013-09-01 02:37:22+00:00,17612614,"{'Lat': '33.01268', 'Long': '76.04226', 'Place': 'Kuta', 'Sl_No': '9674.0'}","{'created_by': 'osmtools/19106 (linux)', 'bot': 'yes', 'comment': 'remove un-discussed and faulty import of India place names'}",,remove un-discussed and faulty import of India place names
40335,253,2013-09-01 02:40:51+00:00,17612614,"{'Lat': '33.73201', 'Long': '77.95918', 'Place': 'Likche', 'Sl_No': '9300.0'}","{'created_by': 'osmtools/19106 (linux)', 'bot': 'yes', 'comment': 'remove un-discussed and faulty import of India place names'}",,remove un-discussed and faulty import of India place names
40334,252,2013-09-01 02:40:30+00:00,17612614,"{'Lat': '33.5879', 'Long': '78.27216', 'Place': 'Kiagi', 'Sl_No': '10583.0'}","{'created_by': 'osmtools/19106 (linux)', 'bot': 'yes', 'comment': 'remove un-discussed and faulty import of India place names'}",,remove un-discussed and faulty import of India place names
40333,251,2013-09-01 02:40:10+00:00,17612614,"{'Lat': '33.40356', 'Long': '77.23956', 'Place': 'Shadi', 'Sl_No': '3035.0'}","{'created_by': 'osmtools/19106 (linux)', 'bot': 'yes', 'comment': 'remove un-discussed and faulty import of India place names'}",,remove un-discussed and faulty import of India place names
40332,250,2013-09-01 02:39:55+00:00,17612614,"{'Lat': '33.32563', 'Long': '77.22268', 'Place': 'Yaytah', 'Sl_No': '95.0'}","{'created_by': 'osmtools/19106 (linux)', 'bot': 'yes', 'comment': 'remove un-discussed and faulty import of India place names'}",,remove un-discussed and faulty import of India place names
40331,249,2013-09-01 02:39:41+00:00,17612614,"{'Lat': '33.28074', 'Long': '77.0332', 'Place': 'Dorzong', 'Sl_No': '14939.0'}","{'created_by': 'osmtools/19106 (linux)', 'bot': 'yes', 'comment': 'remove un-discussed and faulty import of India place names'}",,remove un-discussed and faulty import of India place names
40330,248,2013-09-01 02:38:43+00:00,17612614,"{'Lat': '33.18503', 'Long': '77.16197', 'Place': 'Tetha', 'Sl_No': '1506.0'}","{'created_by': 'osmtools/19106 (linux)', 'bot': 'yes', 'comment': 'remove un-discussed and faulty import of India place names'}",,remove un-discussed and faulty import of India place names
40266,184,2013-09-01 02:40:40+00:00,17612614,"{'Lat': '33.66069', 'Long': '76.62873', 'Place': 'Hamiling', 'Sl_No': '13545.0'}","{'created_by': 'osmtools/19106 (linux)', 'bot': 'yes', 'comment': 'remove un-discussed and faulty import of India place names'}",,remove un-discussed and faulty import of India place names
40265,183,2013-09-01 02:40:09+00:00,17612614,"{'Lat': '33.39782', 'Long': '76.91345', 'Place': 'Burdun Gompa', 'Sl_No': '16968.0'}","{'created_by': 'osmtools/19106 (linux)', 'bot': 'yes', 'comment': 'remove un-discussed and faulty import of India place names'}",,remove un-discussed and faulty import of India place names
1751,1679,2013-09-01 02:33:29+00:00,17612614,"{'Lat': '32.62222', 'Long': '74.75833', 'Place': 'Kotli Shadaula', 'Sl_No': '24894.0'}","{'created_by': 'osmtools/19106 (linux)', 'bot': 'yes', 'comment': 'remove un-discussed and faulty import of India place names'}",,remove un-discussed and faulty import of India place names
1750,1678,2013-09-01 02:33:18+00:00,17612614,"{'Lat': '32.59722', 'Long': '74.79722', 'Place': 'Atmapur', 'Sl_No': '24807.0'}","{'created_by': 'osmtools/19106 (linux)', 'bot': 'yes', 'comment': 'remove un-discussed and faulty import of India place names'}",,remove un-discussed and faulty import of India place names
1749,1677,2013-09-01 02:33:17+00:00,17612614,"{'Lat': '32.5925', 'Long': '74.94285', 'Place': 'Gudwal', 'Sl_No': '24833.0'}","{'created_by': 'osmtools/19106 (linux)', 'bot': 'yes', 'comment': 'remove un-discussed and faulty import of India place names'}",,remove un-discussed and faulty import of India place names
1748,1676,2013-09-01 02:33:13+00:00,17612614,"{'Lat': '32.58333', 'Long': '74.975', 'Place': 'Kainthpur', 'Sl_No': '24759.0'}","{'created_by': 'osmtools/19106 (linux)', 'bot': 'yes', 'comment': 'remove un-discussed and faulty import of India place names'}",,remove un-discussed and faulty import of India place names
1747,1675,2013-09-01 02:33:10+00:00,17612614,"{'Lat': '32.57655', 'Long': '74.83475', 'Place': 'Makkhanpur', 'Sl_No': '24791.0'}","{'created_by': 'osmtools/19106 (linux)', 'bot': 'yes', 'comment': 'remove un-discussed and faulty import of India place names'}",,remove un-discussed and faulty import of India place names
1746,1674,2013-09-01 02:33:09+00:00,17612614,"{'Lat': '32.57414', 'Long': '74.9608', 'Place': 'Dabaj Kaka', 'Sl_No': '24763.0'}","{'created_by': 'osmtools/19106 (linux)', 'bot': 'yes', 'comment': 'remove un-discussed and faulty import of India place names'}",,remove un-discussed and faulty import of India place names
1767,1695,2013-09-01 02:34:31+00:00,17612614,"{'Lat': '32.75768', 'Long': '74.96735', 'Place': 'Tutan Kuhi', 'Sl_No': '24426.0'}","{'created_by': 'osmtools/19106 (linux)', 'bot': 'yes', 'comment': 'remove un-discussed and faulty import of India place names'}",,remove un-discussed and faulty import of India place names
1766,1694,2013-09-01 02:34:29+00:00,17612614,"{'Lat': '32.75626', 'Long': '75.80248', 'Place': 'Chandal', 'Sl_No': '16789.0'}","{'created_by': 'osmtools/19106 (linux)', 'bot': 'yes', 'comment': 'remove un-discussed and faulty import of India place names'}",,remove un-discussed and faulty import of India place names
1765,1693,2013-09-01 02:34:29+00:00,17612614,"{'Lat': '32.75477', 'Long': '74.85108', 'Place': 'Janipura', 'Sl_No': '24372.0'}","{'created_by': 'osmtools/19106 (linux)', 'bot': 'yes', 'comment': 'remove un-discussed and faulty import of India place names'}",,remove un-discussed and faulty import of India place names
1764,1692,2013-09-01 02:34:29+00:00,17612614,"{'Lat': '32.75417', 'Long': '74.69444', 'Place': 'Batur', 'Sl_No': '23394.0'}","{'created_by': 'osmtools/19106 (linux)', 'bot': 'yes', 'comment': 'remove un-discussed and faulty import of India place names'}",,remove un-discussed and faulty import of India place names
1763,1691,2013-09-01 02:34:24+00:00,17612614,"{'Lat': '32.7455', 'Long': '74.92563', 'Place': 'Radhani', 'Sl_No': '25073.0'}","{'created_by': 'osmtools/19106 (linux)', 'bot': 'yes', 'comment': 'remove un-discussed and faulty import of India place names'}",,remove un-discussed and faulty import of India place names
1762,1690,2013-09-01 02:34:21+00:00,17612614,"{'Lat': '32.74235', 'Long': '74.78455', 'Place': 'Aqilpur', 'Sl_No': '25049.0'}","{'created_by': 'osmtools/19106 (linux)', 'bot': 'yes', 'comment': 'remove un-discussed and faulty import of India place names'}",,remove un-discussed and faulty import of India place names
1761,1689,2013-09-01 02:34:15+00:00,17612614,"{'Lat': '32.72609', 'Long': '74.8138', 'Place': 'Ranjitpur', 'Sl_No': '25038.0'}","{'created_by': 'osmtools/19106 (linux)', 'bot': 'yes', 'comment': 'remove un-discussed and faulty import of India place names'}",,remove un-discussed and faulty import of India place names
1760,1688,2013-09-01 02:34:12+00:00,17612614,"{'Lat': '32.71821', 'Long': '74.99464', 'Place': 'Lakhetar', 'Sl_No': '25084.0'}","{'created_by': 'osmtools/19106 (linux)', 'bot': 'yes', 'comment': 'remove un-discussed and faulty import of India place names'}",,remove un-discussed and faulty import of India place names
1759,1687,2013-09-01 02:34:09+00:00,17612614,"{'Lat': '32.70105', 'Long': '75.14672', 'Place': 'Mansar', 'Sl_No': '8321.0'}","{'created_by': 'osmtools/19106 (linux)', 'bot': 'yes', 'comment': 'remove un-discussed and faulty import of India place names'}",,remove un-discussed and faulty import of India place names
1758,1686,2013-09-01 02:34:08+00:00,17612614,"{'Lat': '32.69722', 'Long': '74.77778', 'Place': 'Raja Bhair ki Bani', 'Sl_No': '25020.0'}","{'created_by': 'osmtools/19106 (linux)', 'bot': 'yes', 'comment': 'remove un-discussed and faulty import of India place names'}",,remove un-discussed and faulty import of India place names
1757,1685,2013-09-01 02:34:02+00:00,17612614,"{'Lat': '32.68995', 'Long': '74.75938', 'Place': 'Chak Bhure', 'Sl_No': '24925.0'}","{'created_by': 'osmtools/19106 (linux)', 'bot': 'yes', 'comment': 'remove un-discussed and faulty import of India place names'}",,remove un-discussed and faulty import of India place names
1756,1684,2013-09-01 02:34:00+00:00,17612614,"{'Lat': '32.68472', 'Long': '74.86389', 'Place': 'Dangiana', 'Sl_No': '24952.0'}","{'created_by': 'osmtools/19106 (linux)', 'bot': 'yes', 'comment': 'remove un-discussed and faulty import of India place names'}",,remove un-discussed and faulty import of India place names
